[{
		"id": 3901,
		"name": "Badakhshan",
		"countryId": 1,
		"countryCode": "AF",
		"countryName": "Afghanistan",
		"stateCode": "BDS",
		"latitude": 36.73477250,
		"longitude": 70.81199530
	},{
		"id": 3871,
		"name": "Badghis",
		"countryId": 1,
		"countryCode": "AF",
		"countryName": "Afghanistan",
		"stateCode": "BDG",
		"latitude": 35.16713390,
		"longitude": 63.76953840
	},{
		"id": 3875,
		"name": "Baghlan",
		"countryId": 1,
		"countryCode": "AF",
		"countryName": "Afghanistan",
		"stateCode": "BGL",
		"latitude": 36.17890260,
		"longitude": 68.74530640
	},{
		"id": 3884,
		"name": "Balkh",
		"countryId": 1,
		"countryCode": "AF",
		"countryName": "Afghanistan",
		"stateCode": "BAL",
		"latitude": 36.75506030,
		"longitude": 66.89753720
	},{
		"id": 3872,
		"name": "Bamyan",
		"countryId": 1,
		"countryCode": "AF",
		"countryName": "Afghanistan",
		"stateCode": "BAM",
		"latitude": 34.81000670,
		"longitude": 67.82121040
	},{
		"id": 3892,
		"name": "Daykundi",
		"countryId": 1,
		"countryCode": "AF",
		"countryName": "Afghanistan",
		"stateCode": "DAY",
		"latitude": 33.66949500,
		"longitude": 66.04635340
	},{
		"id": 3899,
		"name": "Farah",
		"countryId": 1,
		"countryCode": "AF",
		"countryName": "Afghanistan",
		"stateCode": "FRA",
		"latitude": 32.49532800,
		"longitude": 62.26266270
	},{
		"id": 3889,
		"name": "Faryab",
		"countryId": 1,
		"countryCode": "AF",
		"countryName": "Afghanistan",
		"stateCode": "FYB",
		"latitude": 36.07956130,
		"longitude": 64.90595500
	},{
		"id": 3870,
		"name": "Ghazni",
		"countryId": 1,
		"countryCode": "AF",
		"countryName": "Afghanistan",
		"stateCode": "GHA",
		"latitude": 33.54505870,
		"longitude": 68.41739720
	},{
		"id": 3888,
		"name": "Ghōr",
		"countryId": 1,
		"countryCode": "AF",
		"countryName": "Afghanistan",
		"stateCode": "GHO",
		"latitude": 34.09957760,
		"longitude": 64.90595500
	},{
		"id": 3873,
		"name": "Helmand",
		"countryId": 1,
		"countryCode": "AF",
		"countryName": "Afghanistan",
		"stateCode": "HEL",
		"latitude": 39.29893610,
		"longitude": -76.61604720
	},{
		"id": 3887,
		"name": "Herat",
		"countryId": 1,
		"countryCode": "AF",
		"countryName": "Afghanistan",
		"stateCode": "HER",
		"latitude": 34.35286500,
		"longitude": 62.20402870
	},{
		"id": 3886,
		"name": "Jowzjan",
		"countryId": 1,
		"countryCode": "AF",
		"countryName": "Afghanistan",
		"stateCode": "JOW",
		"latitude": 36.89696920,
		"longitude": 65.66585680
	},{
		"id": 3902,
		"name": "Kabul",
		"countryId": 1,
		"countryCode": "AF",
		"countryName": "Afghanistan",
		"stateCode": "KAB",
		"latitude": 34.55534940,
		"longitude": 69.20748600
	},{
		"id": 3890,
		"name": "Kandahar",
		"countryId": 1,
		"countryCode": "AF",
		"countryName": "Afghanistan",
		"stateCode": "KAN",
		"latitude": 31.62887100,
		"longitude": 65.73717490
	},{
		"id": 3879,
		"name": "Kapisa",
		"countryId": 1,
		"countryCode": "AF",
		"countryName": "Afghanistan",
		"stateCode": "KAP",
		"latitude": 34.98105720,
		"longitude": 69.62145620
	},{
		"id": 3878,
		"name": "Khost",
		"countryId": 1,
		"countryCode": "AF",
		"countryName": "Afghanistan",
		"stateCode": "KHO",
		"latitude": 33.33384720,
		"longitude": 69.93716730
	},{
		"id": 3876,
		"name": "Kunar",
		"countryId": 1,
		"countryCode": "AF",
		"countryName": "Afghanistan",
		"stateCode": "KNR",
		"latitude": 34.84658930,
		"longitude": 71.09731700
	},{
		"id": 3900,
		"name": "Kunduz Province",
		"countryId": 1,
		"countryCode": "AF",
		"countryName": "Afghanistan",
		"stateCode": "KDZ",
		"latitude": 36.72855110,
		"longitude": 68.86789820
	},{
		"id": 3891,
		"name": "Laghman",
		"countryId": 1,
		"countryCode": "AF",
		"countryName": "Afghanistan",
		"stateCode": "LAG",
		"latitude": 34.68976870,
		"longitude": 70.14558050
	},{
		"id": 3897,
		"name": "Logar",
		"countryId": 1,
		"countryCode": "AF",
		"countryName": "Afghanistan",
		"stateCode": "LOG",
		"latitude": 34.01455180,
		"longitude": 69.19239160
	},{
		"id": 3882,
		"name": "Nangarhar",
		"countryId": 1,
		"countryCode": "AF",
		"countryName": "Afghanistan",
		"stateCode": "NAN",
		"latitude": 34.17183130,
		"longitude": 70.62167940
	},{
		"id": 3896,
		"name": "Nimruz",
		"countryId": 1,
		"countryCode": "AF",
		"countryName": "Afghanistan",
		"stateCode": "NIM",
		"latitude": 31.02614880,
		"longitude": 62.45041540
	},{
		"id": 3880,
		"name": "Nuristan",
		"countryId": 1,
		"countryCode": "AF",
		"countryName": "Afghanistan",
		"stateCode": "NUR",
		"latitude": 35.32502230,
		"longitude": 70.90712360
	},{
		"id": 3894,
		"name": "Paktia",
		"countryId": 1,
		"countryCode": "AF",
		"countryName": "Afghanistan",
		"stateCode": "PIA",
		"latitude": 33.70619900,
		"longitude": 69.38310790
	},{
		"id": 3877,
		"name": "Paktika",
		"countryId": 1,
		"countryCode": "AF",
		"countryName": "Afghanistan",
		"stateCode": "PKA",
		"latitude": 32.26453860,
		"longitude": 68.52471490
	},{
		"id": 3881,
		"name": "Panjshir",
		"countryId": 1,
		"countryCode": "AF",
		"countryName": "Afghanistan",
		"stateCode": "PAN",
		"latitude": 38.88023910,
		"longitude": -77.17172380
	},{
		"id": 3895,
		"name": "Parwan",
		"countryId": 1,
		"countryCode": "AF",
		"countryName": "Afghanistan",
		"stateCode": "PAR",
		"latitude": 34.96309770,
		"longitude": 68.81088490
	},{
		"id": 3883,
		"name": "Samangan",
		"countryId": 1,
		"countryCode": "AF",
		"countryName": "Afghanistan",
		"stateCode": "SAM",
		"latitude": 36.31555060,
		"longitude": 67.96428630
	},{
		"id": 3885,
		"name": "Sar-e Pol",
		"countryId": 1,
		"countryCode": "AF",
		"countryName": "Afghanistan",
		"stateCode": "SAR",
		"latitude": 36.21662800,
		"longitude": 65.93336000
	},{
		"id": 3893,
		"name": "Takhar",
		"countryId": 1,
		"countryCode": "AF",
		"countryName": "Afghanistan",
		"stateCode": "TAK",
		"latitude": 36.66980130,
		"longitude": 69.47845410
	},{
		"id": 3898,
		"name": "Urozgan",
		"countryId": 1,
		"countryCode": "AF",
		"countryName": "Afghanistan",
		"stateCode": "URU",
		"latitude": 32.92712870,
		"longitude": 66.14152630
	},{
		"id": 3874,
		"name": "Zabul",
		"countryId": 1,
		"countryCode": "AF",
		"countryName": "Afghanistan",
		"stateCode": "ZAB",
		"latitude": 32.19187820,
		"longitude": 67.18944880
	},{
		"id": 603,
		"name": "Berat County",
		"countryId": 3,
		"countryCode": "AL",
		"countryName": "Albania",
		"stateCode": "01",
		"latitude": 40.69530120,
		"longitude": 20.04496620
	},{
		"id": 629,
		"name": "Berat District",
		"countryId": 3,
		"countryCode": "AL",
		"countryName": "Albania",
		"stateCode": "BR",
		"latitude": 40.70863770,
		"longitude": 19.94373140
	},{
		"id": 607,
		"name": "Bulqizë District",
		"countryId": 3,
		"countryCode": "AL",
		"countryName": "Albania",
		"stateCode": "BU",
		"latitude": 41.49425870,
		"longitude": 20.21471570
	},{
		"id": 618,
		"name": "Delvinë District",
		"countryId": 3,
		"countryCode": "AL",
		"countryName": "Albania",
		"stateCode": "DL",
		"latitude": 39.94813640,
		"longitude": 20.09558910
	},{
		"id": 608,
		"name": "Devoll District",
		"countryId": 3,
		"countryCode": "AL",
		"countryName": "Albania",
		"stateCode": "DV",
		"latitude": 40.64473470,
		"longitude": 20.95066360
	},{
		"id": 610,
		"name": "Dibër County",
		"countryId": 3,
		"countryCode": "AL",
		"countryName": "Albania",
		"stateCode": "09",
		"latitude": 41.58881630,
		"longitude": 20.23556470
	},{
		"id": 605,
		"name": "Dibër District",
		"countryId": 3,
		"countryCode": "AL",
		"countryName": "Albania",
		"stateCode": "DI",
		"latitude": 41.58881630,
		"longitude": 20.23556470
	},{
		"id": 632,
		"name": "Durrës County",
		"countryId": 3,
		"countryCode": "AL",
		"countryName": "Albania",
		"stateCode": "02",
		"latitude": 41.50809720,
		"longitude": 19.61631850
	},{
		"id": 639,
		"name": "Durrës District",
		"countryId": 3,
		"countryCode": "AL",
		"countryName": "Albania",
		"stateCode": "DR",
		"latitude": 41.37065170,
		"longitude": 19.52110630
	},{
		"id": 598,
		"name": "Elbasan County",
		"countryId": 3,
		"countryCode": "AL",
		"countryName": "Albania",
		"stateCode": "03",
		"latitude": 41.12666720,
		"longitude": 20.23556470
	},{
		"id": 631,
		"name": "Fier County",
		"countryId": 3,
		"countryCode": "AL",
		"countryName": "Albania",
		"stateCode": "04",
		"latitude": 40.91913920,
		"longitude": 19.66393090
	},{
		"id": 627,
		"name": "Fier District",
		"countryId": 3,
		"countryCode": "AL",
		"countryName": "Albania",
		"stateCode": "FR",
		"latitude": 40.72750400,
		"longitude": 19.56275960
	},{
		"id": 604,
		"name": "Gjirokastër County",
		"countryId": 3,
		"countryCode": "AL",
		"countryName": "Albania",
		"stateCode": "05",
		"latitude": 40.06728740,
		"longitude": 20.10452290
	},{
		"id": 621,
		"name": "Gjirokastër District",
		"countryId": 3,
		"countryCode": "AL",
		"countryName": "Albania",
		"stateCode": "GJ",
		"latitude": 40.06728740,
		"longitude": 20.10452290
	},{
		"id": 617,
		"name": "Gramsh District",
		"countryId": 3,
		"countryCode": "AL",
		"countryName": "Albania",
		"stateCode": "GR",
		"latitude": 40.86698730,
		"longitude": 20.18493230
	},{
		"id": 600,
		"name": "Has District",
		"countryId": 3,
		"countryCode": "AL",
		"countryName": "Albania",
		"stateCode": "HA",
		"latitude": 42.79013360,
		"longitude": -83.61220120
	},{
		"id": 594,
		"name": "Kavajë District",
		"countryId": 3,
		"countryCode": "AL",
		"countryName": "Albania",
		"stateCode": "KA",
		"latitude": 41.18445290,
		"longitude": 19.56275960
	},{
		"id": 628,
		"name": "Kolonjë District",
		"countryId": 3,
		"countryCode": "AL",
		"countryName": "Albania",
		"stateCode": "ER",
		"latitude": 40.33732620,
		"longitude": 20.67946760
	},{
		"id": 630,
		"name": "Korçë County",
		"countryId": 3,
		"countryCode": "AL",
		"countryName": "Albania",
		"stateCode": "06",
		"latitude": 40.59056700,
		"longitude": 20.61689210
	},{
		"id": 597,
		"name": "Korçë District",
		"countryId": 3,
		"countryCode": "AL",
		"countryName": "Albania",
		"stateCode": "KO",
		"latitude": 40.59056700,
		"longitude": 20.61689210
	},{
		"id": 614,
		"name": "Krujë District",
		"countryId": 3,
		"countryCode": "AL",
		"countryName": "Albania",
		"stateCode": "KR",
		"latitude": 41.50947650,
		"longitude": 19.77107320
	},{
		"id": 612,
		"name": "Kuçovë District",
		"countryId": 3,
		"countryCode": "AL",
		"countryName": "Albania",
		"stateCode": "KC",
		"latitude": 40.78370630,
		"longitude": 19.87823480
	},{
		"id": 601,
		"name": "Kukës County",
		"countryId": 3,
		"countryCode": "AL",
		"countryName": "Albania",
		"stateCode": "07",
		"latitude": 42.08074640,
		"longitude": 20.41429230
	},{
		"id": 623,
		"name": "Kukës District",
		"countryId": 3,
		"countryCode": "AL",
		"countryName": "Albania",
		"stateCode": "KU",
		"latitude": 42.08074640,
		"longitude": 20.41429230
	},{
		"id": 622,
		"name": "Kurbin District",
		"countryId": 3,
		"countryCode": "AL",
		"countryName": "Albania",
		"stateCode": "KB",
		"latitude": 41.64126440,
		"longitude": 19.70559500
	},{
		"id": 609,
		"name": "Lezhë County",
		"countryId": 3,
		"countryCode": "AL",
		"countryName": "Albania",
		"stateCode": "08",
		"latitude": 41.78137590,
		"longitude": 19.80679160
	},{
		"id": 595,
		"name": "Lezhë District",
		"countryId": 3,
		"countryCode": "AL",
		"countryName": "Albania",
		"stateCode": "LE",
		"latitude": 41.78607300,
		"longitude": 19.64607580
	},{
		"id": 596,
		"name": "Librazhd District",
		"countryId": 3,
		"countryCode": "AL",
		"countryName": "Albania",
		"stateCode": "LB",
		"latitude": 41.18292320,
		"longitude": 20.31747690
	},{
		"id": 599,
		"name": "Lushnjë District",
		"countryId": 3,
		"countryCode": "AL",
		"countryName": "Albania",
		"stateCode": "LU",
		"latitude": 40.94198300,
		"longitude": 19.69964280
	},{
		"id": 602,
		"name": "Malësi e Madhe District",
		"countryId": 3,
		"countryCode": "AL",
		"countryName": "Albania",
		"stateCode": "MM",
		"latitude": 42.42451730,
		"longitude": 19.61631850
	},{
		"id": 637,
		"name": "Mallakastër District",
		"countryId": 3,
		"countryCode": "AL",
		"countryName": "Albania",
		"stateCode": "MK",
		"latitude": 40.52733760,
		"longitude": 19.78297910
	},{
		"id": 635,
		"name": "Mat District",
		"countryId": 3,
		"countryCode": "AL",
		"countryName": "Albania",
		"stateCode": "MT",
		"latitude": 41.59376750,
		"longitude": 19.99732440
	},{
		"id": 638,
		"name": "Mirditë District",
		"countryId": 3,
		"countryCode": "AL",
		"countryName": "Albania",
		"stateCode": "MR",
		"latitude": 41.76428600,
		"longitude": 19.90205090
	},{
		"id": 619,
		"name": "Peqin District",
		"countryId": 3,
		"countryCode": "AL",
		"countryName": "Albania",
		"stateCode": "PQ",
		"latitude": 41.04709020,
		"longitude": 19.75023840
	},{
		"id": 625,
		"name": "Përmet District",
		"countryId": 3,
		"countryCode": "AL",
		"countryName": "Albania",
		"stateCode": "PR",
		"latitude": 40.23618370,
		"longitude": 20.35173340
	},{
		"id": 606,
		"name": "Pogradec District",
		"countryId": 3,
		"countryCode": "AL",
		"countryName": "Albania",
		"stateCode": "PG",
		"latitude": 40.90153140,
		"longitude": 20.65562890
	},{
		"id": 620,
		"name": "Pukë District",
		"countryId": 3,
		"countryCode": "AL",
		"countryName": "Albania",
		"stateCode": "PU",
		"latitude": 42.04697720,
		"longitude": 19.89609680
	},{
		"id": 624,
		"name": "Sarandë District",
		"countryId": 3,
		"countryCode": "AL",
		"countryName": "Albania",
		"stateCode": "SR",
		"latitude": 39.85921190,
		"longitude": 20.02710010
	},{
		"id": 611,
		"name": "Shkodër County",
		"countryId": 3,
		"countryCode": "AL",
		"countryName": "Albania",
		"stateCode": 10,
		"latitude": 42.15037100,
		"longitude": 19.66393090
	},{
		"id": 626,
		"name": "Shkodër District",
		"countryId": 3,
		"countryCode": "AL",
		"countryName": "Albania",
		"stateCode": "SH",
		"latitude": 42.06929850,
		"longitude": 19.50325590
	},{
		"id": 593,
		"name": "Skrapar District",
		"countryId": 3,
		"countryCode": "AL",
		"countryName": "Albania",
		"stateCode": "SK",
		"latitude": 40.53499460,
		"longitude": 20.28322170
	},{
		"id": 616,
		"name": "Tepelenë District",
		"countryId": 3,
		"countryCode": "AL",
		"countryName": "Albania",
		"stateCode": "TE",
		"latitude": 40.29666320,
		"longitude": 20.01816730
	},{
		"id": 615,
		"name": "Tirana County",
		"countryId": 3,
		"countryCode": "AL",
		"countryName": "Albania",
		"stateCode": 11,
		"latitude": 41.24275980,
		"longitude": 19.80679160
	},{
		"id": 633,
		"name": "Tirana District",
		"countryId": 3,
		"countryCode": "AL",
		"countryName": "Albania",
		"stateCode": "TR",
		"latitude": 41.32754590,
		"longitude": 19.81869820
	},{
		"id": 636,
		"name": "Tropojë District",
		"countryId": 3,
		"countryCode": "AL",
		"countryName": "Albania",
		"stateCode": "TP",
		"latitude": 42.39821510,
		"longitude": 20.16259550
	},{
		"id": 634,
		"name": "Vlorë County",
		"countryId": 3,
		"countryCode": "AL",
		"countryName": "Albania",
		"stateCode": 12,
		"latitude": 40.15009600,
		"longitude": 19.80679160
	},{
		"id": 613,
		"name": "Vlorë District",
		"countryId": 3,
		"countryCode": "AL",
		"countryName": "Albania",
		"stateCode": "VL",
		"latitude": 40.46606680,
		"longitude": 19.49135600
	},{
		"id": 1118,
		"name": "Adrar",
		"countryId": 4,
		"countryCode": "DZ",
		"countryName": "Algeria",
		"stateCode": "01",
		"latitude": 26.41813100,
		"longitude": -0.60147170
	},{
		"id": 1119,
		"name": "Aïn Defla",
		"countryId": 4,
		"countryCode": "DZ",
		"countryName": "Algeria",
		"stateCode": 44,
		"latitude": 36.25094290,
		"longitude": 1.93938150
	},{
		"id": 1122,
		"name": "Aïn Témouchent",
		"countryId": 4,
		"countryCode": "DZ",
		"countryName": "Algeria",
		"stateCode": 46,
		"latitude": 35.29926980,
		"longitude": -1.13927920
	},{
		"id": 1144,
		"name": "Algiers",
		"countryId": 4,
		"countryCode": "DZ",
		"countryName": "Algeria",
		"stateCode": 16,
		"latitude": 36.69972940,
		"longitude": 3.05761990
	},{
		"id": 1103,
		"name": "Annaba",
		"countryId": 4,
		"countryCode": "DZ",
		"countryName": "Algeria",
		"stateCode": 23,
		"latitude": 36.80205080,
		"longitude": 7.52472430
	},{
		"id": 1142,
		"name": "Batna",
		"countryId": 4,
		"countryCode": "DZ",
		"countryName": "Algeria",
		"stateCode": "05",
		"latitude": 35.59659540,
		"longitude": 5.89871390
	},{
		"id": 1108,
		"name": "Béchar",
		"countryId": 4,
		"countryCode": "DZ",
		"countryName": "Algeria",
		"stateCode": "08",
		"latitude": 31.62380980,
		"longitude": -2.21624430
	},{
		"id": 1128,
		"name": "Béjaïa",
		"countryId": 4,
		"countryCode": "DZ",
		"countryName": "Algeria",
		"stateCode": "06",
		"latitude": 36.75152580,
		"longitude": 5.05568370
	},{
		"id": 4909,
		"name": "Béni Abbès",
		"countryId": 4,
		"countryCode": "DZ",
		"countryName": "Algeria",
		"stateCode": 53,
		"latitude": 30.08310420,
		"longitude": -2.83450520
	},{
		"id": 1114,
		"name": "Biskra",
		"countryId": 4,
		"countryCode": "DZ",
		"countryName": "Algeria",
		"stateCode": "07",
		"latitude": 34.84494370,
		"longitude": 5.72485670
	},{
		"id": 1111,
		"name": "Blida",
		"countryId": 4,
		"countryCode": "DZ",
		"countryName": "Algeria",
		"stateCode": "09",
		"latitude": 36.53112300,
		"longitude": 2.89762540
	},{
		"id": 4908,
		"name": "Bordj Baji Mokhtar",
		"countryId": 4,
		"countryCode": "DZ",
		"countryName": "Algeria",
		"stateCode": 52,
		"latitude": 22.96633500,
		"longitude": -3.94727320
	},{
		"id": 1116,
		"name": "Bordj Bou Arréridj",
		"countryId": 4,
		"countryCode": "DZ",
		"countryName": "Algeria",
		"stateCode": 34,
		"latitude": 36.07399250,
		"longitude": 4.76302710
	},{
		"id": 1104,
		"name": "Bouïra",
		"countryId": 4,
		"countryCode": "DZ",
		"countryName": "Algeria",
		"stateCode": 10,
		"latitude": 36.36918460,
		"longitude": 3.90061940
	},{
		"id": 1125,
		"name": "Boumerdès",
		"countryId": 4,
		"countryCode": "DZ",
		"countryName": "Algeria",
		"stateCode": 35,
		"latitude": 36.68395590,
		"longitude": 3.62178020
	},{
		"id": 1105,
		"name": "Chlef",
		"countryId": 4,
		"countryCode": "DZ",
		"countryName": "Algeria",
		"stateCode": "02",
		"latitude": 36.16935150,
		"longitude": 1.28910360
	},{
		"id": 1121,
		"name": "Constantine",
		"countryId": 4,
		"countryCode": "DZ",
		"countryName": "Algeria",
		"stateCode": 25,
		"latitude": 36.33739110,
		"longitude": 6.66381200
	},{
		"id": 4912,
		"name": "Djanet",
		"countryId": 4,
		"countryCode": "DZ",
		"countryName": "Algeria",
		"stateCode": 56,
		"latitude": 23.83108720,
		"longitude": 8.70046720
	},{
		"id": 1098,
		"name": "Djelfa",
		"countryId": 4,
		"countryCode": "DZ",
		"countryName": "Algeria",
		"stateCode": 17,
		"latitude": 34.67039560,
		"longitude": 3.25037610
	},{
		"id": 1129,
		"name": "El Bayadh",
		"countryId": 4,
		"countryCode": "DZ",
		"countryName": "Algeria",
		"stateCode": 32,
		"latitude": 32.71488240,
		"longitude": 0.90566230
	},{
		"id": 4905,
		"name": "El M'ghair",
		"countryId": 4,
		"countryCode": "DZ",
		"countryName": "Algeria",
		"stateCode": 49,
		"latitude": 33.95405610,
		"longitude": 5.13464180
	},{
		"id": 4906,
		"name": "El Menia",
		"countryId": 4,
		"countryCode": "DZ",
		"countryName": "Algeria",
		"stateCode": 50,
		"latitude": 31.36422500,
		"longitude": 2.57844950
	},{
		"id": 1099,
		"name": "El Oued",
		"countryId": 4,
		"countryCode": "DZ",
		"countryName": "Algeria",
		"stateCode": 39,
		"latitude": 33.36781100,
		"longitude": 6.85165110
	},{
		"id": 1100,
		"name": "El Tarf",
		"countryId": 4,
		"countryCode": "DZ",
		"countryName": "Algeria",
		"stateCode": 36,
		"latitude": 36.75766780,
		"longitude": 8.30763430
	},{
		"id": 1127,
		"name": "Ghardaïa",
		"countryId": 4,
		"countryCode": "DZ",
		"countryName": "Algeria",
		"stateCode": 47,
		"latitude": 32.49437410,
		"longitude": 3.64446000
	},{
		"id": 1137,
		"name": "Guelma",
		"countryId": 4,
		"countryCode": "DZ",
		"countryName": "Algeria",
		"stateCode": 24,
		"latitude": 36.46274440,
		"longitude": 7.43308330
	},{
		"id": 1112,
		"name": "Illizi",
		"countryId": 4,
		"countryCode": "DZ",
		"countryName": "Algeria",
		"stateCode": 33,
		"latitude": 26.16900050,
		"longitude": 8.48424650
	},{
		"id": 4914,
		"name": "In Guezzam",
		"countryId": 4,
		"countryCode": "DZ",
		"countryName": "Algeria",
		"stateCode": 58,
		"latitude": 20.38643230,
		"longitude": 4.77893940
	},{
		"id": 4913,
		"name": "In Salah",
		"countryId": 4,
		"countryCode": "DZ",
		"countryName": "Algeria",
		"stateCode": 57,
		"latitude": 27.21492290,
		"longitude": 1.84843960
	},{
		"id": 1113,
		"name": "Jijel",
		"countryId": 4,
		"countryCode": "DZ",
		"countryName": "Algeria",
		"stateCode": 18,
		"latitude": 36.71796810,
		"longitude": 5.98325770
	},{
		"id": 1126,
		"name": "Khenchela",
		"countryId": 4,
		"countryCode": "DZ",
		"countryName": "Algeria",
		"stateCode": 40,
		"latitude": 35.42694040,
		"longitude": 7.14601550
	},{
		"id": 1138,
		"name": "Laghouat",
		"countryId": 4,
		"countryCode": "DZ",
		"countryName": "Algeria",
		"stateCode": "03",
		"latitude": 33.80783410,
		"longitude": 2.86282940
	},{
		"id": 1134,
		"name": "M'Sila",
		"countryId": 4,
		"countryCode": "DZ",
		"countryName": "Algeria",
		"stateCode": 28,
		"latitude": 35.71866460,
		"longitude": 4.52334230
	},{
		"id": 1124,
		"name": "Mascara",
		"countryId": 4,
		"countryCode": "DZ",
		"countryName": "Algeria",
		"stateCode": 29,
		"latitude": 35.39041250,
		"longitude": 0.14949880
	},{
		"id": 1109,
		"name": "Médéa",
		"countryId": 4,
		"countryCode": "DZ",
		"countryName": "Algeria",
		"stateCode": 26,
		"latitude": 36.26370780,
		"longitude": 2.75878570
	},{
		"id": 1132,
		"name": "Mila",
		"countryId": 4,
		"countryCode": "DZ",
		"countryName": "Algeria",
		"stateCode": 43,
		"latitude": 36.36479570,
		"longitude": 6.15269850
	},{
		"id": 1140,
		"name": "Mostaganem",
		"countryId": 4,
		"countryCode": "DZ",
		"countryName": "Algeria",
		"stateCode": 27,
		"latitude": 35.95830540,
		"longitude": 0.33718890
	},{
		"id": 1102,
		"name": "Naama",
		"countryId": 4,
		"countryCode": "DZ",
		"countryName": "Algeria",
		"stateCode": 45,
		"latitude": 33.26673170,
		"longitude": -0.31286590
	},{
		"id": 1101,
		"name": "Oran",
		"countryId": 4,
		"countryCode": "DZ",
		"countryName": "Algeria",
		"stateCode": 31,
		"latitude": 35.60823510,
		"longitude": -0.56360900
	},{
		"id": 1139,
		"name": "Ouargla",
		"countryId": 4,
		"countryCode": "DZ",
		"countryName": "Algeria",
		"stateCode": 30,
		"latitude": 32.22648630,
		"longitude": 5.72998210
	},{
		"id": 4907,
		"name": "Ouled Djellal",
		"countryId": 4,
		"countryCode": "DZ",
		"countryName": "Algeria",
		"stateCode": 51,
		"latitude": 34.41782210,
		"longitude": 4.96858430
	},{
		"id": 1136,
		"name": "Oum El Bouaghi",
		"countryId": 4,
		"countryCode": "DZ",
		"countryName": "Algeria",
		"stateCode": "04",
		"latitude": 35.86887890,
		"longitude": 7.11082660
	},{
		"id": 1130,
		"name": "Relizane",
		"countryId": 4,
		"countryCode": "DZ",
		"countryName": "Algeria",
		"stateCode": 48,
		"latitude": 35.73834050,
		"longitude": 0.75328090
	},{
		"id": 1123,
		"name": "Saïda",
		"countryId": 4,
		"countryCode": "DZ",
		"countryName": "Algeria",
		"stateCode": 20,
		"latitude": 34.84152070,
		"longitude": 0.14560550
	},{
		"id": 1141,
		"name": "Sétif",
		"countryId": 4,
		"countryCode": "DZ",
		"countryName": "Algeria",
		"stateCode": 19,
		"latitude": 36.30733890,
		"longitude": 5.56172790
	},{
		"id": 4902,
		"name": "Sidi Bel Abbès",
		"countryId": 4,
		"countryCode": "DZ",
		"countryName": "Algeria",
		"stateCode": 22,
		"latitude": 34.68060240,
		"longitude": -1.09994950
	},{
		"id": 1110,
		"name": "Skikda",
		"countryId": 4,
		"countryCode": "DZ",
		"countryName": "Algeria",
		"stateCode": 21,
		"latitude": 36.67211980,
		"longitude": 6.83509990
	},{
		"id": 1143,
		"name": "Souk Ahras",
		"countryId": 4,
		"countryCode": "DZ",
		"countryName": "Algeria",
		"stateCode": 41,
		"latitude": 36.28010620,
		"longitude": 7.93840330
	},{
		"id": 1135,
		"name": "Tamanghasset",
		"countryId": 4,
		"countryCode": "DZ",
		"countryName": "Algeria",
		"stateCode": 11,
		"latitude": 22.79029720,
		"longitude": 5.51932680
	},{
		"id": 1117,
		"name": "Tébessa",
		"countryId": 4,
		"countryCode": "DZ",
		"countryName": "Algeria",
		"stateCode": 12,
		"latitude": 35.12906910,
		"longitude": 7.95928630
	},{
		"id": 1106,
		"name": "Tiaret",
		"countryId": 4,
		"countryCode": "DZ",
		"countryName": "Algeria",
		"stateCode": 14,
		"latitude": 35.37086890,
		"longitude": 1.32178520
	},{
		"id": 4910,
		"name": "Timimoun",
		"countryId": 4,
		"countryCode": "DZ",
		"countryName": "Algeria",
		"stateCode": 54,
		"latitude": 29.67890600,
		"longitude": 0.50046080
	},{
		"id": 1120,
		"name": "Tindouf",
		"countryId": 4,
		"countryCode": "DZ",
		"countryName": "Algeria",
		"stateCode": 37,
		"latitude": 27.80631190,
		"longitude": -5.72998210
	},{
		"id": 1115,
		"name": "Tipasa",
		"countryId": 4,
		"countryCode": "DZ",
		"countryName": "Algeria",
		"stateCode": 42,
		"latitude": 36.54626500,
		"longitude": 2.18432850
	},{
		"id": 1133,
		"name": "Tissemsilt",
		"countryId": 4,
		"countryCode": "DZ",
		"countryName": "Algeria",
		"stateCode": 38,
		"latitude": 35.60537810,
		"longitude": 1.81309800
	},{
		"id": 1131,
		"name": "Tizi Ouzou",
		"countryId": 4,
		"countryCode": "DZ",
		"countryName": "Algeria",
		"stateCode": 15,
		"latitude": 36.70691100,
		"longitude": 4.23333550
	},{
		"id": 1107,
		"name": "Tlemcen",
		"countryId": 4,
		"countryCode": "DZ",
		"countryName": "Algeria",
		"stateCode": 13,
		"latitude": 34.67802840,
		"longitude": -1.36621600
	},{
		"id": 4911,
		"name": "Touggourt",
		"countryId": 4,
		"countryCode": "DZ",
		"countryName": "Algeria",
		"stateCode": 55,
		"latitude": 33.12484760,
		"longitude": 5.78327150
	},{
		"id": 488,
		"name": "Andorra la Vella",
		"countryId": 6,
		"countryCode": "AD",
		"countryName": "Andorra",
		"stateCode": "07",
		"latitude": 42.50631740,
		"longitude": 1.52183550
	},{
		"id": 489,
		"name": "Canillo",
		"countryId": 6,
		"countryCode": "AD",
		"countryName": "Andorra",
		"stateCode": "02",
		"latitude": 42.59782490,
		"longitude": 1.65663770
	},{
		"id": 487,
		"name": "Encamp",
		"countryId": 6,
		"countryCode": "AD",
		"countryName": "Andorra",
		"stateCode": "03",
		"latitude": 42.53597640,
		"longitude": 1.58367730
	},{
		"id": 492,
		"name": "Escaldes-Engordany",
		"countryId": 6,
		"countryCode": "AD",
		"countryName": "Andorra",
		"stateCode": "08",
		"latitude": 42.49093790,
		"longitude": 1.58869660
	},{
		"id": 493,
		"name": "La Massana",
		"countryId": 6,
		"countryCode": "AD",
		"countryName": "Andorra",
		"stateCode": "04",
		"latitude": 42.54562500,
		"longitude": 1.51473920
	},{
		"id": 491,
		"name": "Ordino",
		"countryId": 6,
		"countryCode": "AD",
		"countryName": "Andorra",
		"stateCode": "05",
		"latitude": 42.59944330,
		"longitude": 1.54023270
	},{
		"id": 490,
		"name": "Sant Julià de Lòria",
		"countryId": 6,
		"countryCode": "AD",
		"countryName": "Andorra",
		"stateCode": "06",
		"latitude": 42.45296310,
		"longitude": 1.49182350
	},{
		"id": 221,
		"name": "Bengo Province",
		"countryId": 7,
		"countryCode": "AO",
		"countryName": "Angola",
		"stateCode": "BGO",
		"latitude": -9.10422570,
		"longitude": 13.72891670
	},{
		"id": 218,
		"name": "Benguela Province",
		"countryId": 7,
		"countryCode": "AO",
		"countryName": "Angola",
		"stateCode": "BGU",
		"latitude": -12.80037440,
		"longitude": 13.91439900
	},{
		"id": 212,
		"name": "Bié Province",
		"countryId": 7,
		"countryCode": "AO",
		"countryName": "Angola",
		"stateCode": "BIE",
		"latitude": -12.57279070,
		"longitude": 17.66888700
	},{
		"id": 228,
		"name": "Cabinda Province",
		"countryId": 7,
		"countryCode": "AO",
		"countryName": "Angola",
		"stateCode": "CAB",
		"latitude": -5.02487490,
		"longitude": 12.34638750
	},{
		"id": 226,
		"name": "Cuando Cubango Province",
		"countryId": 7,
		"countryCode": "AO",
		"countryName": "Angola",
		"stateCode": "CCU",
		"latitude": -16.41808240,
		"longitude": 18.80761950
	},{
		"id": 217,
		"name": "Cuanza Norte Province",
		"countryId": 7,
		"countryCode": "AO",
		"countryName": "Angola",
		"stateCode": "CNO",
		"latitude": -9.23985130,
		"longitude": 14.65878210
	},{
		"id": 216,
		"name": "Cuanza Sul",
		"countryId": 7,
		"countryCode": "AO",
		"countryName": "Angola",
		"stateCode": "CUS",
		"latitude": -10.59519100,
		"longitude": 15.40680790
	},{
		"id": 215,
		"name": "Cunene Province",
		"countryId": 7,
		"countryCode": "AO",
		"countryName": "Angola",
		"stateCode": "CNN",
		"latitude": -16.28022210,
		"longitude": 16.15809370
	},{
		"id": 213,
		"name": "Huambo Province",
		"countryId": 7,
		"countryCode": "AO",
		"countryName": "Angola",
		"stateCode": "HUA",
		"latitude": -12.52682210,
		"longitude": 15.59433880
	},{
		"id": 225,
		"name": "Huíla Province",
		"countryId": 7,
		"countryCode": "AO",
		"countryName": "Angola",
		"stateCode": "HUI",
		"latitude": -14.92805530,
		"longitude": 14.65878210
	},{
		"id": 222,
		"name": "Luanda Province",
		"countryId": 7,
		"countryCode": "AO",
		"countryName": "Angola",
		"stateCode": "LUA",
		"latitude": -9.03508800,
		"longitude": 13.26634790
	},{
		"id": 223,
		"name": "Lunda Norte Province",
		"countryId": 7,
		"countryCode": "AO",
		"countryName": "Angola",
		"stateCode": "LNO",
		"latitude": -8.35250220,
		"longitude": 19.18800470
	},{
		"id": 220,
		"name": "Lunda Sul Province",
		"countryId": 7,
		"countryCode": "AO",
		"countryName": "Angola",
		"stateCode": "LSU",
		"latitude": -10.28665780,
		"longitude": 20.71224650
	},{
		"id": 227,
		"name": "Malanje Province",
		"countryId": 7,
		"countryCode": "AO",
		"countryName": "Angola",
		"stateCode": "MAL",
		"latitude": -9.82511830,
		"longitude": 16.91225100
	},{
		"id": 219,
		"name": "Moxico Province",
		"countryId": 7,
		"countryCode": "AO",
		"countryName": "Angola",
		"stateCode": "MOX",
		"latitude": -13.42935790,
		"longitude": 20.33088140
	},{
		"id": 224,
		"name": "Uíge Province",
		"countryId": 7,
		"countryCode": "AO",
		"countryName": "Angola",
		"stateCode": "UIG",
		"latitude": -7.17367320,
		"longitude": 15.40680790
	},{
		"id": 214,
		"name": "Zaire Province",
		"countryId": 7,
		"countryCode": "AO",
		"countryName": "Angola",
		"stateCode": "ZAI",
		"latitude": -6.57334580,
		"longitude": 13.17403480
	},{
		"id": 3708,
		"name": "Barbuda",
		"countryId": 10,
		"countryCode": "AG",
		"countryName": "Antigua And Barbuda",
		"stateCode": 10,
		"latitude": 17.62662420,
		"longitude": -61.77130280
	},{
		"id": 3703,
		"name": "Redonda",
		"countryId": 10,
		"countryCode": "AG",
		"countryName": "Antigua And Barbuda",
		"stateCode": 11,
		"latitude": 16.93841600,
		"longitude": -62.34551480
	},{
		"id": 3709,
		"name": "Saint George Parish",
		"countryId": 10,
		"countryCode": "AG",
		"countryName": "Antigua And Barbuda",
		"stateCode": "03"
	},{
		"id": 3706,
		"name": "Saint John Parish",
		"countryId": 10,
		"countryCode": "AG",
		"countryName": "Antigua And Barbuda",
		"stateCode": "04"
	},{
		"id": 3707,
		"name": "Saint Mary Parish",
		"countryId": 10,
		"countryCode": "AG",
		"countryName": "Antigua And Barbuda",
		"stateCode": "05"
	},{
		"id": 3705,
		"name": "Saint Paul Parish",
		"countryId": 10,
		"countryCode": "AG",
		"countryName": "Antigua And Barbuda",
		"stateCode": "06"
	},{
		"id": 3704,
		"name": "Saint Peter Parish",
		"countryId": 10,
		"countryCode": "AG",
		"countryName": "Antigua And Barbuda",
		"stateCode": "07"
	},{
		"id": 3710,
		"name": "Saint Philip Parish",
		"countryId": 10,
		"countryCode": "AG",
		"countryName": "Antigua And Barbuda",
		"stateCode": "08",
		"latitude": 40.43682580,
		"longitude": -80.06855320
	},{
		"id": 3656,
		"name": "Buenos Aires",
		"countryId": 11,
		"countryCode": "AR",
		"countryName": "Argentina",
		"stateCode": "B",
		"type": "province",
		"latitude": -37.20172850,
		"longitude": -59.84106970
	},{
		"id": 3647,
		"name": "Catamarca",
		"countryId": 11,
		"countryCode": "AR",
		"countryName": "Argentina",
		"stateCode": "K",
		"type": "province",
		"latitude": -28.47158770,
		"longitude": -65.78772090
	},{
		"id": 3640,
		"name": "Chaco",
		"countryId": 11,
		"countryCode": "AR",
		"countryName": "Argentina",
		"stateCode": "H",
		"type": "province",
		"latitude": -27.42571750,
		"longitude": -59.02437840
	},{
		"id": 3651,
		"name": "Chubut",
		"countryId": 11,
		"countryCode": "AR",
		"countryName": "Argentina",
		"stateCode": "U",
		"type": "province",
		"latitude": -43.29342460,
		"longitude": -65.11148180
	},{
		"id": 4880,
		"name": "Ciudad Autónoma de Buenos Aires",
		"countryId": 11,
		"countryCode": "AR",
		"countryName": "Argentina",
		"stateCode": "C",
		"type": "city",
		"latitude": -34.60368440,
		"longitude": -58.38155910
	},{
		"id": 3642,
		"name": "Córdoba",
		"countryId": 11,
		"countryCode": "AR",
		"countryName": "Argentina",
		"stateCode": "X",
		"type": "province",
		"latitude": -31.39928760,
		"longitude": -64.26438420
	},{
		"id": 3638,
		"name": "Corrientes",
		"countryId": 11,
		"countryCode": "AR",
		"countryName": "Argentina",
		"stateCode": "W",
		"type": "province",
		"latitude": -27.46921310,
		"longitude": -58.83063490
	},{
		"id": 3654,
		"name": "Entre Ríos",
		"countryId": 11,
		"countryCode": "AR",
		"countryName": "Argentina",
		"stateCode": "E",
		"type": "province",
		"latitude": -31.77466540,
		"longitude": -60.49564610
	},{
		"id": 3652,
		"name": "Formosa",
		"countryId": 11,
		"countryCode": "AR",
		"countryName": "Argentina",
		"stateCode": "P",
		"type": "province",
		"latitude": -26.18948040,
		"longitude": -58.22428060
	},{
		"id": 3645,
		"name": "Jujuy",
		"countryId": 11,
		"countryCode": "AR",
		"countryName": "Argentina",
		"stateCode": "Y",
		"type": "province",
		"latitude": -24.18433970,
		"longitude": -65.30217700
	},{
		"id": 3655,
		"name": "La Pampa",
		"countryId": 11,
		"countryCode": "AR",
		"countryName": "Argentina",
		"stateCode": "L",
		"type": "province",
		"latitude": -36.61475730,
		"longitude": -64.28392090
	},{
		"id": 3653,
		"name": "La Rioja",
		"countryId": 11,
		"countryCode": "AR",
		"countryName": "Argentina",
		"stateCode": "F",
		"type": "province",
		"latitude": -29.41937930,
		"longitude": -66.85599320
	},{
		"id": 3646,
		"name": "Mendoza",
		"countryId": 11,
		"countryCode": "AR",
		"countryName": "Argentina",
		"stateCode": "M",
		"type": "province",
		"latitude": -32.88945870,
		"longitude": -68.84583860
	},{
		"id": 3644,
		"name": "Misiones",
		"countryId": 11,
		"countryCode": "AR",
		"countryName": "Argentina",
		"stateCode": "N",
		"type": "province",
		"latitude": -27.42692550,
		"longitude": -55.94670760
	},{
		"id": 3648,
		"name": "Neuquén",
		"countryId": 11,
		"countryCode": "AR",
		"countryName": "Argentina",
		"stateCode": "Q",
		"type": "province",
		"latitude": -38.94587000,
		"longitude": -68.07309250
	},{
		"id": 3639,
		"name": "Río Negro",
		"countryId": 11,
		"countryCode": "AR",
		"countryName": "Argentina",
		"stateCode": "R",
		"type": "province",
		"latitude": -40.82614340,
		"longitude": -63.02663390
	},{
		"id": 3643,
		"name": "Salta",
		"countryId": 11,
		"countryCode": "AR",
		"countryName": "Argentina",
		"stateCode": "A",
		"type": "province",
		"latitude": -24.79976880,
		"longitude": -65.41503670
	},{
		"id": 3634,
		"name": "San Juan",
		"countryId": 11,
		"countryCode": "AR",
		"countryName": "Argentina",
		"stateCode": "J",
		"type": "province",
		"latitude": -31.53169760,
		"longitude": -68.56769620
	},{
		"id": 3636,
		"name": "San Luis",
		"countryId": 11,
		"countryCode": "AR",
		"countryName": "Argentina",
		"stateCode": "D",
		"type": "province",
		"latitude": -33.29620420,
		"longitude": -66.32949480
	},{
		"id": 3649,
		"name": "Santa Cruz",
		"countryId": 11,
		"countryCode": "AR",
		"countryName": "Argentina",
		"stateCode": "Z",
		"type": "province",
		"latitude": -51.63528210,
		"longitude": -69.24743530
	},{
		"id": 3641,
		"name": "Santa Fe",
		"countryId": 11,
		"countryCode": "AR",
		"countryName": "Argentina",
		"stateCode": "S",
		"type": "province",
		"latitude": -31.58551090,
		"longitude": -60.72380160
	},{
		"id": 3635,
		"name": "Santiago del Estero",
		"countryId": 11,
		"countryCode": "AR",
		"countryName": "Argentina",
		"stateCode": "G",
		"type": "province",
		"latitude": -27.78335740,
		"longitude": -64.26416700
	},{
		"id": 3650,
		"name": "Tierra del Fuego",
		"countryId": 11,
		"countryCode": "AR",
		"countryName": "Argentina",
		"stateCode": "V",
		"type": "province",
		"latitude": -54.80539980,
		"longitude": -68.32420610
	},{
		"id": 3637,
		"name": "Tucumán",
		"countryId": 11,
		"countryCode": "AR",
		"countryName": "Argentina",
		"stateCode": "T",
		"type": "province",
		"latitude": -26.82211270,
		"longitude": -65.21929030
	},{
		"id": 2023,
		"name": "Aragatsotn Region",
		"countryId": 12,
		"countryCode": "AM",
		"countryName": "Armenia",
		"stateCode": "AG",
		"latitude": 40.33473010,
		"longitude": 44.37482960
	},{
		"id": 2024,
		"name": "Ararat Province",
		"countryId": 12,
		"countryCode": "AM",
		"countryName": "Armenia",
		"stateCode": "AR",
		"latitude": 39.91394150,
		"longitude": 44.72000040
	},{
		"id": 2026,
		"name": "Armavir Region",
		"countryId": 12,
		"countryCode": "AM",
		"countryName": "Armenia",
		"stateCode": "AV",
		"latitude": 40.15546310,
		"longitude": 44.03724460
	},{
		"id": 2028,
		"name": "Gegharkunik Province",
		"countryId": 12,
		"countryCode": "AM",
		"countryName": "Armenia",
		"stateCode": "GR",
		"latitude": 40.35264260,
		"longitude": 45.12604140
	},{
		"id": 2033,
		"name": "Kotayk Region",
		"countryId": 12,
		"countryCode": "AM",
		"countryName": "Armenia",
		"stateCode": "KT",
		"latitude": 40.54102140,
		"longitude": 44.76901480
	},{
		"id": 2029,
		"name": "Lori Region",
		"countryId": 12,
		"countryCode": "AM",
		"countryName": "Armenia",
		"stateCode": "LO",
		"latitude": 40.96984520,
		"longitude": 44.49001380
	},{
		"id": 2031,
		"name": "Shirak Region",
		"countryId": 12,
		"countryCode": "AM",
		"countryName": "Armenia",
		"stateCode": "SH",
		"latitude": 40.96308140,
		"longitude": 43.81024610
	},{
		"id": 2027,
		"name": "Syunik Province",
		"countryId": 12,
		"countryCode": "AM",
		"countryName": "Armenia",
		"stateCode": "SU",
		"latitude": 39.51331120,
		"longitude": 46.33932340
	},{
		"id": 2032,
		"name": "Tavush Region",
		"countryId": 12,
		"countryCode": "AM",
		"countryName": "Armenia",
		"stateCode": "TV",
		"latitude": 40.88662960,
		"longitude": 45.33934900
	},{
		"id": 2025,
		"name": "Vayots Dzor Region",
		"countryId": 12,
		"countryCode": "AM",
		"countryName": "Armenia",
		"stateCode": "VD",
		"latitude": 39.76419960,
		"longitude": 45.33375280
	},{
		"id": 2030,
		"name": "Yerevan",
		"countryId": 12,
		"countryCode": "AM",
		"countryName": "Armenia",
		"stateCode": "ER",
		"latitude": 40.18720230,
		"longitude": 44.51520900
	},{
		"id": 3907,
		"name": "Australian Capital Territory",
		"countryId": 14,
		"countryCode": "AU",
		"countryName": "Australia",
		"stateCode": "ACT",
		"type": "territory",
		"latitude": -35.47346790,
		"longitude": 149.01236790
	},{
		"id": 3909,
		"name": "New South Wales",
		"countryId": 14,
		"countryCode": "AU",
		"countryName": "Australia",
		"stateCode": "NSW",
		"type": "state",
		"latitude": -31.25321830,
		"longitude": 146.92109900
	},{
		"id": 3910,
		"name": "Northern Territory",
		"countryId": 14,
		"countryCode": "AU",
		"countryName": "Australia",
		"stateCode": "NT",
		"type": "territory",
		"latitude": -19.49141080,
		"longitude": 132.55096030
	},{
		"id": 3905,
		"name": "Queensland",
		"countryId": 14,
		"countryCode": "AU",
		"countryName": "Australia",
		"stateCode": "QLD",
		"type": "state",
		"latitude": -20.91757380,
		"longitude": 142.70279560
	},{
		"id": 3904,
		"name": "South Australia",
		"countryId": 14,
		"countryCode": "AU",
		"countryName": "Australia",
		"stateCode": "SA",
		"type": "state",
		"latitude": -30.00023150,
		"longitude": 136.20915470
	},{
		"id": 3908,
		"name": "Tasmania",
		"countryId": 14,
		"countryCode": "AU",
		"countryName": "Australia",
		"stateCode": "TAS",
		"type": "state",
		"latitude": -41.45451960,
		"longitude": 145.97066470
	},{
		"id": 3903,
		"name": "Victoria",
		"countryId": 14,
		"countryCode": "AU",
		"countryName": "Australia",
		"stateCode": "VIC",
		"type": "state",
		"latitude": -36.48564230,
		"longitude": 140.97794250
	},{
		"id": 3906,
		"name": "Western Australia",
		"countryId": 14,
		"countryCode": "AU",
		"countryName": "Australia",
		"stateCode": "WA",
		"type": "state",
		"latitude": -27.67281680,
		"longitude": 121.62830980
	},{
		"id": 2062,
		"name": "Burgenland",
		"countryId": 15,
		"countryCode": "AT",
		"countryName": "Austria",
		"stateCode": 1,
		"latitude": 47.15371650,
		"longitude": 16.26887970
	},{
		"id": 2057,
		"name": "Carinthia",
		"countryId": 15,
		"countryCode": "AT",
		"countryName": "Austria",
		"stateCode": 2,
		"latitude": 46.72220300,
		"longitude": 14.18058820
	},{
		"id": 2065,
		"name": "Lower Austria",
		"countryId": 15,
		"countryCode": "AT",
		"countryName": "Austria",
		"stateCode": 3,
		"latitude": 48.10807700,
		"longitude": 15.80495580
	},{
		"id": 2061,
		"name": "Salzburg",
		"countryId": 15,
		"countryCode": "AT",
		"countryName": "Austria",
		"stateCode": 5,
		"latitude": 47.80949000,
		"longitude": 13.05501000
	},{
		"id": 2059,
		"name": "Styria",
		"countryId": 15,
		"countryCode": "AT",
		"countryName": "Austria",
		"stateCode": 6,
		"latitude": 47.35934420,
		"longitude": 14.46998270
	},{
		"id": 2064,
		"name": "Tyrol",
		"countryId": 15,
		"countryCode": "AT",
		"countryName": "Austria",
		"stateCode": 7,
		"latitude": 47.25374140,
		"longitude": 11.60148700
	},{
		"id": 2058,
		"name": "Upper Austria",
		"countryId": 15,
		"countryCode": "AT",
		"countryName": "Austria",
		"stateCode": 4,
		"latitude": 48.02585400,
		"longitude": 13.97236650
	},{
		"id": 2060,
		"name": "Vienna",
		"countryId": 15,
		"countryCode": "AT",
		"countryName": "Austria",
		"stateCode": 9,
		"latitude": 48.20817430,
		"longitude": 16.37381890
	},{
		"id": 2063,
		"name": "Vorarlberg",
		"countryId": 15,
		"countryCode": "AT",
		"countryName": "Austria",
		"stateCode": 8,
		"latitude": 47.24974270,
		"longitude": 9.97973730
	},{
		"id": 540,
		"name": "Absheron District",
		"countryId": 16,
		"countryCode": "AZ",
		"countryName": "Azerbaijan",
		"stateCode": "ABS",
		"latitude": 40.36296930,
		"longitude": 49.27368150
	},{
		"id": 559,
		"name": "Agdam District",
		"countryId": 16,
		"countryCode": "AZ",
		"countryName": "Azerbaijan",
		"stateCode": "AGM",
		"latitude": 39.99318530,
		"longitude": 46.99495620
	},{
		"id": 553,
		"name": "Agdash District",
		"countryId": 16,
		"countryCode": "AZ",
		"countryName": "Azerbaijan",
		"stateCode": "AGS",
		"latitude": 40.63354270,
		"longitude": 47.46743100
	},{
		"id": 577,
		"name": "Aghjabadi District",
		"countryId": 16,
		"countryCode": "AZ",
		"countryName": "Azerbaijan",
		"stateCode": "AGC",
		"latitude": 28.78918410,
		"longitude": 77.51607880
	},{
		"id": 543,
		"name": "Agstafa District",
		"countryId": 16,
		"countryCode": "AZ",
		"countryName": "Azerbaijan",
		"stateCode": "AGA",
		"latitude": 41.26559330,
		"longitude": 45.51342910
	},{
		"id": 547,
		"name": "Agsu District",
		"countryId": 16,
		"countryCode": "AZ",
		"countryName": "Azerbaijan",
		"stateCode": "AGU",
		"latitude": 40.52833390,
		"longitude": 48.36508350
	},{
		"id": 528,
		"name": "Astara District",
		"countryId": 16,
		"countryCode": "AZ",
		"countryName": "Azerbaijan",
		"stateCode": "AST",
		"latitude": 38.49378450,
		"longitude": 48.69443650
	},{
		"id": 575,
		"name": "Babek District",
		"countryId": 16,
		"countryCode": "AZ",
		"countryName": "Azerbaijan",
		"stateCode": "BAB",
		"latitude": 39.15076130,
		"longitude": 45.44853680
	},{
		"id": 552,
		"name": "Baku",
		"countryId": 16,
		"countryCode": "AZ",
		"countryName": "Azerbaijan",
		"stateCode": "BA",
		"latitude": 40.40926170,
		"longitude": 49.86709240
	},{
		"id": 560,
		"name": "Balakan District",
		"countryId": 16,
		"countryCode": "AZ",
		"countryName": "Azerbaijan",
		"stateCode": "BAL",
		"latitude": 41.70375090,
		"longitude": 46.40442130
	},{
		"id": 569,
		"name": "Barda District",
		"countryId": 16,
		"countryCode": "AZ",
		"countryName": "Azerbaijan",
		"stateCode": "BAR",
		"latitude": 40.37065550,
		"longitude": 47.13789090
	},{
		"id": 554,
		"name": "Beylagan District",
		"countryId": 16,
		"countryCode": "AZ",
		"countryName": "Azerbaijan",
		"stateCode": "BEY",
		"latitude": 39.77230730,
		"longitude": 47.61541660
	},{
		"id": 532,
		"name": "Bilasuvar District",
		"countryId": 16,
		"countryCode": "AZ",
		"countryName": "Azerbaijan",
		"stateCode": "BIL",
		"latitude": 39.45988330,
		"longitude": 48.55098130
	},{
		"id": 561,
		"name": "Dashkasan District",
		"countryId": 16,
		"countryCode": "AZ",
		"countryName": "Azerbaijan",
		"stateCode": "DAS",
		"latitude": 40.52022570,
		"longitude": 46.07793040
	},{
		"id": 527,
		"name": "Fizuli District",
		"countryId": 16,
		"countryCode": "AZ",
		"countryName": "Azerbaijan",
		"stateCode": "FUZ",
		"latitude": 39.53786050,
		"longitude": 47.30338770
	},{
		"id": 585,
		"name": "Ganja",
		"countryId": 16,
		"countryCode": "AZ",
		"countryName": "Azerbaijan",
		"stateCode": "GA",
		"latitude": 36.36873380,
		"longitude": -95.99857670
	},{
		"id": 589,
		"name": "Gədəbəy",
		"countryId": 16,
		"countryCode": "AZ",
		"countryName": "Azerbaijan",
		"stateCode": "GAD",
		"latitude": 40.56996390,
		"longitude": 45.81068830
	},{
		"id": 573,
		"name": "Gobustan District",
		"countryId": 16,
		"countryCode": "AZ",
		"countryName": "Azerbaijan",
		"stateCode": "QOB",
		"latitude": 40.53261040,
		"longitude": 48.92737500
	},{
		"id": 551,
		"name": "Goranboy District",
		"countryId": 16,
		"countryCode": "AZ",
		"countryName": "Azerbaijan",
		"stateCode": "GOR",
		"latitude": 40.53805060,
		"longitude": 46.59908910
	},{
		"id": 531,
		"name": "Goychay",
		"countryId": 16,
		"countryCode": "AZ",
		"countryName": "Azerbaijan",
		"stateCode": "GOY",
		"latitude": 40.62361680,
		"longitude": 47.74030340
	},{
		"id": 574,
		"name": "Goygol District",
		"countryId": 16,
		"countryCode": "AZ",
		"countryName": "Azerbaijan",
		"stateCode": "GYG",
		"latitude": 40.55953780,
		"longitude": 46.33149530
	},{
		"id": 571,
		"name": "Hajigabul District",
		"countryId": 16,
		"countryCode": "AZ",
		"countryName": "Azerbaijan",
		"stateCode": "HAC",
		"latitude": 40.03937700,
		"longitude": 48.92025330
	},{
		"id": 544,
		"name": "Imishli District",
		"countryId": 16,
		"countryCode": "AZ",
		"countryName": "Azerbaijan",
		"stateCode": "IMI",
		"latitude": 39.86946860,
		"longitude": 48.06652180
	},{
		"id": 564,
		"name": "Ismailli District",
		"countryId": 16,
		"countryCode": "AZ",
		"countryName": "Azerbaijan",
		"stateCode": "ISM",
		"latitude": 40.74299360,
		"longitude": 48.21255560
	},{
		"id": 570,
		"name": "Jabrayil District",
		"countryId": 16,
		"countryCode": "AZ",
		"countryName": "Azerbaijan",
		"stateCode": "CAB",
		"latitude": 39.26455440,
		"longitude": 46.96215620
	},{
		"id": 578,
		"name": "Jalilabad District",
		"countryId": 16,
		"countryCode": "AZ",
		"countryName": "Azerbaijan",
		"stateCode": "CAL",
		"latitude": 39.20516320,
		"longitude": 48.51006040
	},{
		"id": 572,
		"name": "Julfa District",
		"countryId": 16,
		"countryCode": "AZ",
		"countryName": "Azerbaijan",
		"stateCode": "CUL",
		"latitude": 38.96049830,
		"longitude": 45.62929390
	},{
		"id": 525,
		"name": "Kalbajar District",
		"countryId": 16,
		"countryCode": "AZ",
		"countryName": "Azerbaijan",
		"stateCode": "KAL",
		"latitude": 40.10243290,
		"longitude": 46.03648720
	},{
		"id": 567,
		"name": "Kangarli District",
		"countryId": 16,
		"countryCode": "AZ",
		"countryName": "Azerbaijan",
		"stateCode": "KAN",
		"latitude": 39.38719400,
		"longitude": 45.16398520
	},{
		"id": 590,
		"name": "Khachmaz District",
		"countryId": 16,
		"countryCode": "AZ",
		"countryName": "Azerbaijan",
		"stateCode": "XAC",
		"latitude": 41.45911680,
		"longitude": 48.80206260
	},{
		"id": 537,
		"name": "Khizi District",
		"countryId": 16,
		"countryCode": "AZ",
		"countryName": "Azerbaijan",
		"stateCode": "XIZ",
		"latitude": 40.91094890,
		"longitude": 49.07292640
	},{
		"id": 524,
		"name": "Khojali District",
		"countryId": 16,
		"countryCode": "AZ",
		"countryName": "Azerbaijan",
		"stateCode": "XCI",
		"latitude": 39.91325530,
		"longitude": 46.79430500
	},{
		"id": 549,
		"name": "Kurdamir District",
		"countryId": 16,
		"countryCode": "AZ",
		"countryName": "Azerbaijan",
		"stateCode": "KUR",
		"latitude": 40.36986510,
		"longitude": 48.16446260
	},{
		"id": 541,
		"name": "Lachin District",
		"countryId": 16,
		"countryCode": "AZ",
		"countryName": "Azerbaijan",
		"stateCode": "LAC",
		"latitude": 39.63834140,
		"longitude": 46.54608530
	},{
		"id": 587,
		"name": "Lankaran",
		"countryId": 16,
		"countryCode": "AZ",
		"countryName": "Azerbaijan",
		"stateCode": "LAN",
		"latitude": 38.75286690,
		"longitude": 48.84750150
	},{
		"id": 558,
		"name": "Lankaran District",
		"countryId": 16,
		"countryCode": "AZ",
		"countryName": "Azerbaijan",
		"stateCode": "LA",
		"latitude": 38.75286690,
		"longitude": 48.84750150
	},{
		"id": 546,
		"name": "Lerik District",
		"countryId": 16,
		"countryCode": "AZ",
		"countryName": "Azerbaijan",
		"stateCode": "LER",
		"latitude": 38.77361920,
		"longitude": 48.41514830
	},{
		"id": 568,
		"name": "Martuni",
		"countryId": 16,
		"countryCode": "AZ",
		"countryName": "Azerbaijan",
		"stateCode": "XVD",
		"latitude": 39.79146930,
		"longitude": 47.11008140
	},{
		"id": 555,
		"name": "Masally District",
		"countryId": 16,
		"countryCode": "AZ",
		"countryName": "Azerbaijan",
		"stateCode": "MAS",
		"latitude": 39.03407220,
		"longitude": 48.65893540
	},{
		"id": 580,
		"name": "Mingachevir",
		"countryId": 16,
		"countryCode": "AZ",
		"countryName": "Azerbaijan",
		"stateCode": "MI",
		"latitude": 40.77025630,
		"longitude": 47.04960150
	},{
		"id": 562,
		"name": "Nakhchivan Autonomous Republic",
		"countryId": 16,
		"countryCode": "AZ",
		"countryName": "Azerbaijan",
		"stateCode": "NX",
		"latitude": 39.32568140,
		"longitude": 45.49126480
	},{
		"id": 530,
		"name": "Neftchala District",
		"countryId": 16,
		"countryCode": "AZ",
		"countryName": "Azerbaijan",
		"stateCode": "NEF",
		"latitude": 39.38810520,
		"longitude": 49.24137430
	},{
		"id": 556,
		"name": "Oghuz District",
		"countryId": 16,
		"countryCode": "AZ",
		"countryName": "Azerbaijan",
		"stateCode": "OGU",
		"latitude": 41.07279240,
		"longitude": 47.46506720
	},{
		"id": 534,
		"name": "Ordubad District",
		"countryId": 16,
		"countryCode": "AZ",
		"countryName": "Azerbaijan",
		"stateCode": "ORD",
		"latitude": 38.90216220,
		"longitude": 46.02376250
	},{
		"id": 542,
		"name": "Qabala District",
		"countryId": 16,
		"countryCode": "AZ",
		"countryName": "Azerbaijan",
		"stateCode": "QAB",
		"latitude": 40.92539250,
		"longitude": 47.80161060
	},{
		"id": 526,
		"name": "Qakh District",
		"countryId": 16,
		"countryCode": "AZ",
		"countryName": "Azerbaijan",
		"stateCode": "QAX",
		"latitude": 41.42068270,
		"longitude": 46.93201840
	},{
		"id": 521,
		"name": "Qazakh District",
		"countryId": 16,
		"countryCode": "AZ",
		"countryName": "Azerbaijan",
		"stateCode": "QAZ",
		"latitude": 41.09710740,
		"longitude": 45.35163310
	},{
		"id": 563,
		"name": "Quba District",
		"countryId": 16,
		"countryCode": "AZ",
		"countryName": "Azerbaijan",
		"stateCode": "QBA",
		"latitude": 41.15642420,
		"longitude": 48.41350210
	},{
		"id": 548,
		"name": "Qubadli District",
		"countryId": 16,
		"countryCode": "AZ",
		"countryName": "Azerbaijan",
		"stateCode": "QBI",
		"latitude": 39.27139960,
		"longitude": 46.63543120
	},{
		"id": 588,
		"name": "Qusar District",
		"countryId": 16,
		"countryCode": "AZ",
		"countryName": "Azerbaijan",
		"stateCode": "QUS",
		"latitude": 41.42668860,
		"longitude": 48.43455770
	},{
		"id": 557,
		"name": "Saatly District",
		"countryId": 16,
		"countryCode": "AZ",
		"countryName": "Azerbaijan",
		"stateCode": "SAT",
		"latitude": 39.90955030,
		"longitude": 48.35951220
	},{
		"id": 565,
		"name": "Sabirabad District",
		"countryId": 16,
		"countryCode": "AZ",
		"countryName": "Azerbaijan",
		"stateCode": "SAB",
		"latitude": 39.98706630,
		"longitude": 48.46925450
	},{
		"id": 522,
		"name": "Sadarak District",
		"countryId": 16,
		"countryCode": "AZ",
		"countryName": "Azerbaijan",
		"stateCode": "SAD",
		"latitude": 39.71051140,
		"longitude": 44.88642770
	},{
		"id": 545,
		"name": "Salyan District",
		"countryId": 16,
		"countryCode": "AZ",
		"countryName": "Azerbaijan",
		"stateCode": "SAL",
		"latitude": 28.35248110,
		"longitude": 82.12784000
	},{
		"id": 536,
		"name": "Samukh District",
		"countryId": 16,
		"countryCode": "AZ",
		"countryName": "Azerbaijan",
		"stateCode": "SMX",
		"latitude": 40.76046310,
		"longitude": 46.40631810
	},{
		"id": 591,
		"name": "Shabran District",
		"countryId": 16,
		"countryCode": "AZ",
		"countryName": "Azerbaijan",
		"stateCode": "SBN",
		"latitude": 41.22283760,
		"longitude": 48.84573040
	},{
		"id": 579,
		"name": "Shahbuz District",
		"countryId": 16,
		"countryCode": "AZ",
		"countryName": "Azerbaijan",
		"stateCode": "SAH",
		"latitude": 39.44521030,
		"longitude": 45.65680090
	},{
		"id": 518,
		"name": "Shaki",
		"countryId": 16,
		"countryCode": "AZ",
		"countryName": "Azerbaijan",
		"stateCode": "SA",
		"latitude": 41.19747530,
		"longitude": 47.15712410
	},{
		"id": 586,
		"name": "Shaki District",
		"countryId": 16,
		"countryCode": "AZ",
		"countryName": "Azerbaijan",
		"stateCode": "SAK",
		"latitude": 41.11346620,
		"longitude": 47.13169270
	},{
		"id": 529,
		"name": "Shamakhi District",
		"countryId": 16,
		"countryCode": "AZ",
		"countryName": "Azerbaijan",
		"stateCode": "SMI",
		"latitude": 40.63187310,
		"longitude": 48.63638010
	},{
		"id": 583,
		"name": "Shamkir District",
		"countryId": 16,
		"countryCode": "AZ",
		"countryName": "Azerbaijan",
		"stateCode": "SKR",
		"latitude": 40.82881440,
		"longitude": 46.01668790
	},{
		"id": 535,
		"name": "Sharur District",
		"countryId": 16,
		"countryCode": "AZ",
		"countryName": "Azerbaijan",
		"stateCode": "SAR",
		"latitude": 39.55363320,
		"longitude": 44.98456800
	},{
		"id": 520,
		"name": "Shirvan",
		"countryId": 16,
		"countryCode": "AZ",
		"countryName": "Azerbaijan",
		"stateCode": "SR",
		"latitude": 39.94697070,
		"longitude": 48.92239190
	},{
		"id": 592,
		"name": "Shusha District",
		"countryId": 16,
		"countryCode": "AZ",
		"countryName": "Azerbaijan",
		"stateCode": "SUS",
		"latitude": 39.75374380,
		"longitude": 46.74647550
	},{
		"id": 584,
		"name": "Siazan District",
		"countryId": 16,
		"countryCode": "AZ",
		"countryName": "Azerbaijan",
		"stateCode": "SIY",
		"latitude": 41.07838330,
		"longitude": 49.11184770
	},{
		"id": 582,
		"name": "Sumqayit",
		"countryId": 16,
		"countryCode": "AZ",
		"countryName": "Azerbaijan",
		"stateCode": "SM",
		"latitude": 40.58547650,
		"longitude": 49.63174110
	},{
		"id": 519,
		"name": "Tartar District",
		"countryId": 16,
		"countryCode": "AZ",
		"countryName": "Azerbaijan",
		"stateCode": "TAR",
		"latitude": 40.34438750,
		"longitude": 46.93765190
	},{
		"id": 533,
		"name": "Tovuz District",
		"countryId": 16,
		"countryCode": "AZ",
		"countryName": "Azerbaijan",
		"stateCode": "TOV",
		"latitude": 40.99545230,
		"longitude": 45.61659070
	},{
		"id": 539,
		"name": "Ujar District",
		"countryId": 16,
		"countryCode": "AZ",
		"countryName": "Azerbaijan",
		"stateCode": "UCA",
		"latitude": 40.50675250,
		"longitude": 47.64896410
	},{
		"id": 550,
		"name": "Yardymli District",
		"countryId": 16,
		"countryCode": "AZ",
		"countryName": "Azerbaijan",
		"stateCode": "YAR",
		"latitude": 38.90589170,
		"longitude": 48.24961270
	},{
		"id": 538,
		"name": "Yevlakh",
		"countryId": 16,
		"countryCode": "AZ",
		"countryName": "Azerbaijan",
		"stateCode": "YE",
		"latitude": 40.61966380,
		"longitude": 47.15003240
	},{
		"id": 523,
		"name": "Yevlakh District",
		"countryId": 16,
		"countryCode": "AZ",
		"countryName": "Azerbaijan",
		"stateCode": "YEV",
		"latitude": 40.61966380,
		"longitude": 47.15003240
	},{
		"id": 581,
		"name": "Zangilan District",
		"countryId": 16,
		"countryCode": "AZ",
		"countryName": "Azerbaijan",
		"stateCode": "ZAN",
		"latitude": 39.08568990,
		"longitude": 46.65247280
	},{
		"id": 566,
		"name": "Zaqatala District",
		"countryId": 16,
		"countryCode": "AZ",
		"countryName": "Azerbaijan",
		"stateCode": "ZAQ",
		"latitude": 41.59068890,
		"longitude": 46.72403730
	},{
		"id": 576,
		"name": "Zardab District",
		"countryId": 16,
		"countryCode": "AZ",
		"countryName": "Azerbaijan",
		"stateCode": "ZAR",
		"latitude": 40.21481140,
		"longitude": 47.71494400
	},{
		"id": 1992,
		"name": "Capital",
		"countryId": 18,
		"countryCode": "BH",
		"countryName": "Bahrain",
		"stateCode": 13
	},{
		"id": 1996,
		"name": "Central",
		"countryId": 18,
		"countryCode": "BH",
		"countryName": "Bahrain",
		"stateCode": 16,
		"latitude": 26.14260930,
		"longitude": 50.56532940
	},{
		"id": 1995,
		"name": "Muharraq",
		"countryId": 18,
		"countryCode": "BH",
		"countryName": "Bahrain",
		"stateCode": 15,
		"latitude": 26.26856530,
		"longitude": 50.64825170
	},{
		"id": 1994,
		"name": "Northern",
		"countryId": 18,
		"countryCode": "BH",
		"countryName": "Bahrain",
		"stateCode": 17,
		"latitude": 26.15519140,
		"longitude": 50.48251730
	},{
		"id": 1993,
		"name": "Southern",
		"countryId": 18,
		"countryCode": "BH",
		"countryName": "Bahrain",
		"stateCode": 14,
		"latitude": 25.93810180,
		"longitude": 50.57568870
	},{
		"id": 796,
		"name": "Bagerhat District",
		"countryId": 19,
		"countryCode": "BD",
		"countryName": "Bangladesh",
		"stateCode": "05",
		"latitude": 22.66024360,
		"longitude": 89.78954780
	},{
		"id": 802,
		"name": "Bahadia",
		"countryId": 19,
		"countryCode": "BD",
		"countryName": "Bangladesh",
		"stateCode": 33,
		"latitude": 23.78987120,
		"longitude": 90.16714830
	},{
		"id": 752,
		"name": "Bandarban District",
		"countryId": 19,
		"countryCode": "BD",
		"countryName": "Bangladesh",
		"stateCode": "01",
		"latitude": 21.83110020,
		"longitude": 92.36863210
	},{
		"id": 784,
		"name": "Barguna District",
		"countryId": 19,
		"countryCode": "BD",
		"countryName": "Bangladesh",
		"stateCode": "02",
		"latitude": 22.09529150,
		"longitude": 90.11206960
	},{
		"id": 818,
		"name": "Barisal District",
		"countryId": 19,
		"countryCode": "BD",
		"countryName": "Bangladesh",
		"stateCode": "06",
		"latitude": 22.70220980,
		"longitude": 90.36963160
	},{
		"id": 807,
		"name": "Barisal Division",
		"countryId": 19,
		"countryCode": "BD",
		"countryName": "Bangladesh",
		"stateCode": "A",
		"latitude": 22.38111310,
		"longitude": 90.33718890
	},{
		"id": 756,
		"name": "Bhola District",
		"countryId": 19,
		"countryCode": "BD",
		"countryName": "Bangladesh",
		"stateCode": "07",
		"latitude": 22.17853150,
		"longitude": 90.71010230
	},{
		"id": 797,
		"name": "Bogra District",
		"countryId": 19,
		"countryCode": "BD",
		"countryName": "Bangladesh",
		"stateCode": "03",
		"latitude": 24.85104020,
		"longitude": 89.36972250
	},{
		"id": 810,
		"name": "Brahmanbaria District",
		"countryId": 19,
		"countryCode": "BD",
		"countryName": "Bangladesh",
		"stateCode": "04",
		"latitude": 23.96081810,
		"longitude": 91.11150140
	},{
		"id": 768,
		"name": "Chandpur District",
		"countryId": 19,
		"countryCode": "BD",
		"countryName": "Bangladesh",
		"stateCode": "09",
		"latitude": 23.25131480,
		"longitude": 90.85178460
	},{
		"id": 761,
		"name": "Chapai Nawabganj District",
		"countryId": 19,
		"countryCode": "BD",
		"countryName": "Bangladesh",
		"stateCode": 45,
		"latitude": 24.74131110,
		"longitude": 88.29120690
	},{
		"id": 785,
		"name": "Chittagong District",
		"countryId": 19,
		"countryCode": "BD",
		"countryName": "Bangladesh",
		"stateCode": 10,
		"latitude": 22.51501050,
		"longitude": 91.75388170
	},{
		"id": 803,
		"name": "Chittagong Division",
		"countryId": 19,
		"countryCode": "BD",
		"countryName": "Bangladesh",
		"stateCode": "B",
		"latitude": 23.17931570,
		"longitude": 91.98815270
	},{
		"id": 788,
		"name": "Chuadanga District",
		"countryId": 19,
		"countryCode": "BD",
		"countryName": "Bangladesh",
		"stateCode": 12,
		"latitude": 23.61605120,
		"longitude": 88.82630060
	},{
		"id": 763,
		"name": "Comilla District",
		"countryId": 19,
		"countryCode": "BD",
		"countryName": "Bangladesh",
		"stateCode": "08",
		"latitude": 23.45756670,
		"longitude": 91.18089960
	},{
		"id": 751,
		"name": "Cox's Bazar District",
		"countryId": 19,
		"countryCode": "BD",
		"countryName": "Bangladesh",
		"stateCode": 11,
		"latitude": 21.56406260,
		"longitude": 92.02821290
	},{
		"id": 771,
		"name": "Dhaka District",
		"countryId": 19,
		"countryCode": "BD",
		"countryName": "Bangladesh",
		"stateCode": 13,
		"latitude": 23.81051400,
		"longitude": 90.33718890
	},{
		"id": 760,
		"name": "Dhaka Division",
		"countryId": 19,
		"countryCode": "BD",
		"countryName": "Bangladesh",
		"stateCode": "C",
		"latitude": 23.95357420,
		"longitude": 90.14949880
	},{
		"id": 783,
		"name": "Dinajpur District",
		"countryId": 19,
		"countryCode": "BD",
		"countryName": "Bangladesh",
		"stateCode": 14,
		"latitude": 25.62791230,
		"longitude": 88.63317580
	},{
		"id": 762,
		"name": "Faridpur District",
		"countryId": 19,
		"countryCode": "BD",
		"countryName": "Bangladesh",
		"stateCode": 15,
		"latitude": 23.54239190,
		"longitude": 89.63089210
	},{
		"id": 816,
		"name": "Feni District",
		"countryId": 19,
		"countryCode": "BD",
		"countryName": "Bangladesh",
		"stateCode": 16,
		"latitude": 22.94087840,
		"longitude": 91.40666460
	},{
		"id": 795,
		"name": "Gaibandha District",
		"countryId": 19,
		"countryCode": "BD",
		"countryName": "Bangladesh",
		"stateCode": 19,
		"latitude": 25.32969280,
		"longitude": 89.54296520
	},{
		"id": 798,
		"name": "Gazipur District",
		"countryId": 19,
		"countryCode": "BD",
		"countryName": "Bangladesh",
		"stateCode": 18,
		"latitude": 24.09581710,
		"longitude": 90.41251810
	},{
		"id": 792,
		"name": "Gopalganj District",
		"countryId": 19,
		"countryCode": "BD",
		"countryName": "Bangladesh",
		"stateCode": 17,
		"latitude": 26.48315840,
		"longitude": 84.43655000
	},{
		"id": 805,
		"name": "Habiganj District",
		"countryId": 19,
		"countryCode": "BD",
		"countryName": "Bangladesh",
		"stateCode": 20,
		"latitude": 24.47712360,
		"longitude": 91.45065650
	},{
		"id": 808,
		"name": "Jamalpur District",
		"countryId": 19,
		"countryCode": "BD",
		"countryName": "Bangladesh",
		"stateCode": 21,
		"latitude": 25.08309260,
		"longitude": 89.78532180
	},{
		"id": 757,
		"name": "Jessore District",
		"countryId": 19,
		"countryCode": "BD",
		"countryName": "Bangladesh",
		"stateCode": 22,
		"latitude": 23.16340140,
		"longitude": 89.21816640
	},{
		"id": 778,
		"name": "Jhalokati District",
		"countryId": 19,
		"countryCode": "BD",
		"countryName": "Bangladesh",
		"stateCode": 25,
		"latitude": 22.57208000,
		"longitude": 90.18696440
	},{
		"id": 789,
		"name": "Jhenaidah District",
		"countryId": 19,
		"countryCode": "BD",
		"countryName": "Bangladesh",
		"stateCode": 23,
		"latitude": 23.54498730,
		"longitude": 89.17260310
	},{
		"id": 806,
		"name": "Joypurhat District",
		"countryId": 19,
		"countryCode": "BD",
		"countryName": "Bangladesh",
		"stateCode": 24,
		"latitude": 25.09473490,
		"longitude": 89.09449370
	},{
		"id": 786,
		"name": "Khagrachari District",
		"countryId": 19,
		"countryCode": "BD",
		"countryName": "Bangladesh",
		"stateCode": 29,
		"latitude": 23.13217510,
		"longitude": 91.94902100
	},{
		"id": 811,
		"name": "Khulna District",
		"countryId": 19,
		"countryCode": "BD",
		"countryName": "Bangladesh",
		"stateCode": 27,
		"latitude": 22.67377350,
		"longitude": 89.39665810
	},{
		"id": 775,
		"name": "Khulna Division",
		"countryId": 19,
		"countryCode": "BD",
		"countryName": "Bangladesh",
		"stateCode": "D",
		"latitude": 22.80878160,
		"longitude": 89.24671910
	},{
		"id": 779,
		"name": "Kishoreganj District",
		"countryId": 19,
		"countryCode": "BD",
		"countryName": "Bangladesh",
		"stateCode": 26,
		"latitude": 24.42604570,
		"longitude": 90.98206680
	},{
		"id": 793,
		"name": "Kurigram District",
		"countryId": 19,
		"countryCode": "BD",
		"countryName": "Bangladesh",
		"stateCode": 28,
		"latitude": 25.80724140,
		"longitude": 89.62947460
	},{
		"id": 774,
		"name": "Kushtia District",
		"countryId": 19,
		"countryCode": "BD",
		"countryName": "Bangladesh",
		"stateCode": 30,
		"latitude": 23.89069950,
		"longitude": 89.10993680
	},{
		"id": 819,
		"name": "Lakshmipur District",
		"countryId": 19,
		"countryCode": "BD",
		"countryName": "Bangladesh",
		"stateCode": 31,
		"latitude": 22.94467440,
		"longitude": 90.82819070
	},{
		"id": 780,
		"name": "Lalmonirhat District",
		"countryId": 19,
		"countryCode": "BD",
		"countryName": "Bangladesh",
		"stateCode": 32,
		"latitude": 25.99233980,
		"longitude": 89.28472510
	},{
		"id": 817,
		"name": "Madaripur District",
		"countryId": 19,
		"countryCode": "BD",
		"countryName": "Bangladesh",
		"stateCode": 36,
		"latitude": 23.23933460,
		"longitude": 90.18696440
	},{
		"id": 776,
		"name": "Meherpur District",
		"countryId": 19,
		"countryCode": "BD",
		"countryName": "Bangladesh",
		"stateCode": 39,
		"latitude": 23.80519910,
		"longitude": 88.67235780
	},{
		"id": 794,
		"name": "Moulvibazar District",
		"countryId": 19,
		"countryCode": "BD",
		"countryName": "Bangladesh",
		"stateCode": 38,
		"latitude": 24.30953440,
		"longitude": 91.73149030
	},{
		"id": 790,
		"name": "Munshiganj District",
		"countryId": 19,
		"countryCode": "BD",
		"countryName": "Bangladesh",
		"stateCode": 35,
		"latitude": 23.49809310,
		"longitude": 90.41266210
	},{
		"id": 766,
		"name": "Mymensingh District",
		"countryId": 19,
		"countryCode": "BD",
		"countryName": "Bangladesh",
		"stateCode": 34,
		"latitude": 24.75385750,
		"longitude": 90.40729190
	},{
		"id": 758,
		"name": "Mymensingh Division",
		"countryId": 19,
		"countryCode": "BD",
		"countryName": "Bangladesh",
		"stateCode": "H",
		"latitude": 24.71362000,
		"longitude": 90.45023680
	},{
		"id": 814,
		"name": "Naogaon District",
		"countryId": 19,
		"countryCode": "BD",
		"countryName": "Bangladesh",
		"stateCode": 48,
		"latitude": 24.91315970,
		"longitude": 88.75309520
	},{
		"id": 769,
		"name": "Narail District",
		"countryId": 19,
		"countryCode": "BD",
		"countryName": "Bangladesh",
		"stateCode": 43,
		"latitude": 23.11629290,
		"longitude": 89.58404040
	},{
		"id": 770,
		"name": "Narayanganj District",
		"countryId": 19,
		"countryCode": "BD",
		"countryName": "Bangladesh",
		"stateCode": 40,
		"latitude": 23.71466010,
		"longitude": 90.56360900
	},{
		"id": 787,
		"name": "Natore District",
		"countryId": 19,
		"countryCode": "BD",
		"countryName": "Bangladesh",
		"stateCode": 44,
		"latitude": 24.41024300,
		"longitude": 89.00761770
	},{
		"id": 764,
		"name": "Netrokona District",
		"countryId": 19,
		"countryCode": "BD",
		"countryName": "Bangladesh",
		"stateCode": 41,
		"latitude": 24.81032840,
		"longitude": 90.86564150
	},{
		"id": 772,
		"name": "Nilphamari District",
		"countryId": 19,
		"countryCode": "BD",
		"countryName": "Bangladesh",
		"stateCode": 46,
		"latitude": 25.84827980,
		"longitude": 88.94141340
	},{
		"id": 815,
		"name": "Noakhali District",
		"countryId": 19,
		"countryCode": "BD",
		"countryName": "Bangladesh",
		"stateCode": 47,
		"latitude": 22.87237890,
		"longitude": 91.09731840
	},{
		"id": 754,
		"name": "Pabna District",
		"countryId": 19,
		"countryCode": "BD",
		"countryName": "Bangladesh",
		"stateCode": 49,
		"latitude": 24.15850500,
		"longitude": 89.44807180
	},{
		"id": 800,
		"name": "Panchagarh District",
		"countryId": 19,
		"countryCode": "BD",
		"countryName": "Bangladesh",
		"stateCode": 52,
		"latitude": 26.27087050,
		"longitude": 88.59517510
	},{
		"id": 777,
		"name": "Patuakhali District",
		"countryId": 19,
		"countryCode": "BD",
		"countryName": "Bangladesh",
		"stateCode": 51,
		"latitude": 22.22486320,
		"longitude": 90.45475030
	},{
		"id": 791,
		"name": "Pirojpur District",
		"countryId": 19,
		"countryCode": "BD",
		"countryName": "Bangladesh",
		"stateCode": 50,
		"latitude": 22.57907440,
		"longitude": 89.97592640
	},{
		"id": 773,
		"name": "Rajbari District",
		"countryId": 19,
		"countryCode": "BD",
		"countryName": "Bangladesh",
		"stateCode": 53,
		"latitude": 23.71513400,
		"longitude": 89.58748190
	},{
		"id": 813,
		"name": "Rajshahi District",
		"countryId": 19,
		"countryCode": "BD",
		"countryName": "Bangladesh",
		"stateCode": 54,
		"latitude": 24.37330870,
		"longitude": 88.60487160
	},{
		"id": 753,
		"name": "Rajshahi Division",
		"countryId": 19,
		"countryCode": "BD",
		"countryName": "Bangladesh",
		"stateCode": "E",
		"latitude": 24.71057760,
		"longitude": 88.94138650
	},{
		"id": 809,
		"name": "Rangamati Hill District",
		"countryId": 19,
		"countryCode": "BD",
		"countryName": "Bangladesh",
		"stateCode": 56,
		"latitude": 22.73241730,
		"longitude": 92.29851340
	},{
		"id": 759,
		"name": "Rangpur District",
		"countryId": 19,
		"countryCode": "BD",
		"countryName": "Bangladesh",
		"stateCode": 55,
		"latitude": 25.74679250,
		"longitude": 89.25083350
	},{
		"id": 750,
		"name": "Rangpur Division",
		"countryId": 19,
		"countryCode": "BD",
		"countryName": "Bangladesh",
		"stateCode": "F",
		"latitude": 25.84833880,
		"longitude": 88.94138650
	},{
		"id": 799,
		"name": "Satkhira District",
		"countryId": 19,
		"countryCode": "BD",
		"countryName": "Bangladesh",
		"stateCode": 58,
		"latitude": 22.31548120,
		"longitude": 89.11145250
	},{
		"id": 801,
		"name": "Shariatpur District",
		"countryId": 19,
		"countryCode": "BD",
		"countryName": "Bangladesh",
		"stateCode": 62,
		"latitude": 23.24232140,
		"longitude": 90.43477110
	},{
		"id": 755,
		"name": "Sherpur District",
		"countryId": 19,
		"countryCode": "BD",
		"countryName": "Bangladesh",
		"stateCode": 57,
		"latitude": 25.07462350,
		"longitude": 90.14949040
	},{
		"id": 781,
		"name": "Sirajganj District",
		"countryId": 19,
		"countryCode": "BD",
		"countryName": "Bangladesh",
		"stateCode": 59,
		"latitude": 24.31411150,
		"longitude": 89.56996150
	},{
		"id": 812,
		"name": "Sunamganj District",
		"countryId": 19,
		"countryCode": "BD",
		"countryName": "Bangladesh",
		"stateCode": 61,
		"latitude": 25.07145350,
		"longitude": 91.39916270
	},{
		"id": 767,
		"name": "Sylhet District",
		"countryId": 19,
		"countryCode": "BD",
		"countryName": "Bangladesh",
		"stateCode": 60,
		"latitude": 24.89933570,
		"longitude": 91.87004730
	},{
		"id": 765,
		"name": "Sylhet Division",
		"countryId": 19,
		"countryCode": "BD",
		"countryName": "Bangladesh",
		"stateCode": "G",
		"latitude": 24.70498110,
		"longitude": 91.67606910
	},{
		"id": 782,
		"name": "Tangail District",
		"countryId": 19,
		"countryCode": "BD",
		"countryName": "Bangladesh",
		"stateCode": 63,
		"latitude": 24.39174270,
		"longitude": 89.99482570
	},{
		"id": 804,
		"name": "Thakurgaon District",
		"countryId": 19,
		"countryCode": "BD",
		"countryName": "Bangladesh",
		"stateCode": 64,
		"latitude": 26.04183920,
		"longitude": 88.42826160
	},{
		"id": 1228,
		"name": "Christ Church",
		"countryId": 20,
		"countryCode": "BB",
		"countryName": "Barbados",
		"stateCode": "01",
		"latitude": 36.00604070,
		"longitude": -95.92112100
	},{
		"id": 1229,
		"name": "Saint Andrew",
		"countryId": 20,
		"countryCode": "BB",
		"countryName": "Barbados",
		"stateCode": "02"
	},{
		"id": 1226,
		"name": "Saint George",
		"countryId": 20,
		"countryCode": "BB",
		"countryName": "Barbados",
		"stateCode": "03",
		"latitude": 37.09652780,
		"longitude": -113.56841640
	},{
		"id": 1224,
		"name": "Saint James",
		"countryId": 20,
		"countryCode": "BB",
		"countryName": "Barbados",
		"stateCode": "04",
		"latitude": 48.52356600,
		"longitude": -1.32378850
	},{
		"id": 1227,
		"name": "Saint John",
		"countryId": 20,
		"countryCode": "BB",
		"countryName": "Barbados",
		"stateCode": "05",
		"latitude": 45.27331530,
		"longitude": -66.06330800
	},{
		"id": 1223,
		"name": "Saint Joseph",
		"countryId": 20,
		"countryCode": "BB",
		"countryName": "Barbados",
		"stateCode": "06",
		"latitude": 39.76745780,
		"longitude": -94.84668100
	},{
		"id": 1221,
		"name": "Saint Lucy",
		"countryId": 20,
		"countryCode": "BB",
		"countryName": "Barbados",
		"stateCode": "07",
		"latitude": 38.76146250,
		"longitude": -77.44914390
	},{
		"id": 1230,
		"name": "Saint Michael",
		"countryId": 20,
		"countryCode": "BB",
		"countryName": "Barbados",
		"stateCode": "08",
		"latitude": 36.03597700,
		"longitude": -95.84905200
	},{
		"id": 1222,
		"name": "Saint Peter",
		"countryId": 20,
		"countryCode": "BB",
		"countryName": "Barbados",
		"stateCode": "09",
		"latitude": 37.08271190,
		"longitude": -94.51712500
	},{
		"id": 1220,
		"name": "Saint Philip",
		"countryId": 20,
		"countryCode": "BB",
		"countryName": "Barbados",
		"stateCode": 10,
		"latitude": 35.23311400,
		"longitude": -89.43640420
	},{
		"id": 1225,
		"name": "Saint Thomas",
		"countryId": 20,
		"countryCode": "BB",
		"countryName": "Barbados",
		"stateCode": 11,
		"latitude": 18.33809650,
		"longitude": -64.89409460
	},{
		"id": 2959,
		"name": "Brest Region",
		"countryId": 21,
		"countryCode": "BY",
		"countryName": "Belarus",
		"stateCode": "BR",
		"latitude": 52.52966410,
		"longitude": 25.46064800
	},{
		"id": 2955,
		"name": "Gomel Region",
		"countryId": 21,
		"countryCode": "BY",
		"countryName": "Belarus",
		"stateCode": "HO",
		"latitude": 52.16487540,
		"longitude": 29.13332510
	},{
		"id": 2956,
		"name": "Grodno Region",
		"countryId": 21,
		"countryCode": "BY",
		"countryName": "Belarus",
		"stateCode": "HR",
		"latitude": 53.65999450,
		"longitude": 25.34485710
	},{
		"id": 2958,
		"name": "Minsk",
		"countryId": 21,
		"countryCode": "BY",
		"countryName": "Belarus",
		"stateCode": "HM",
		"latitude": 53.90060110,
		"longitude": 27.55897200
	},{
		"id": 2957,
		"name": "Minsk Region",
		"countryId": 21,
		"countryCode": "BY",
		"countryName": "Belarus",
		"stateCode": "MI",
		"latitude": 54.10678890,
		"longitude": 27.41292450
	},{
		"id": 2954,
		"name": "Mogilev Region",
		"countryId": 21,
		"countryCode": "BY",
		"countryName": "Belarus",
		"stateCode": "MA",
		"latitude": 53.51017910,
		"longitude": 30.40064440
	},{
		"id": 2960,
		"name": "Vitebsk Region",
		"countryId": 21,
		"countryCode": "BY",
		"countryName": "Belarus",
		"stateCode": "VI",
		"latitude": 55.29598330,
		"longitude": 28.75836270
	},{
		"id": 1381,
		"name": "Antwerp",
		"countryId": 22,
		"countryCode": "BE",
		"countryName": "Belgium",
		"stateCode": "VAN",
		"latitude": 51.21944750,
		"longitude": 4.40246430
	},{
		"id": 1376,
		"name": "Brussels-Capital Region",
		"countryId": 22,
		"countryCode": "BE",
		"countryName": "Belgium",
		"stateCode": "BRU",
		"latitude": 50.85034630,
		"longitude": 4.35172110
	},{
		"id": 1377,
		"name": "East Flanders",
		"countryId": 22,
		"countryCode": "BE",
		"countryName": "Belgium",
		"stateCode": "VOV",
		"latitude": 51.03621010,
		"longitude": 3.73731240
	},{
		"id": 1373,
		"name": "Flanders",
		"countryId": 22,
		"countryCode": "BE",
		"countryName": "Belgium",
		"stateCode": "VLG",
		"latitude": 51.01087060,
		"longitude": 3.72646130
	},{
		"id": 1374,
		"name": "Flemish Brabant",
		"countryId": 22,
		"countryCode": "BE",
		"countryName": "Belgium",
		"stateCode": "VBR",
		"latitude": 50.88154340,
		"longitude": 4.56459700
	},{
		"id": 1375,
		"name": "Hainaut",
		"countryId": 22,
		"countryCode": "BE",
		"countryName": "Belgium",
		"stateCode": "WHT",
		"latitude": 50.52570760,
		"longitude": 4.06210170
	},{
		"id": 1384,
		"name": "Liège",
		"countryId": 22,
		"countryCode": "BE",
		"countryName": "Belgium",
		"stateCode": "WLG",
		"latitude": 50.63255740,
		"longitude": 5.57966620
	},{
		"id": 1372,
		"name": "Limburg",
		"countryId": 22,
		"countryCode": "BE",
		"countryName": "Belgium",
		"stateCode": "VLI"
	},{
		"id": 1379,
		"name": "Luxembourg",
		"countryId": 22,
		"countryCode": "BE",
		"countryName": "Belgium",
		"stateCode": "WLX",
		"latitude": 49.81527300,
		"longitude": 6.12958300
	},{
		"id": 1378,
		"name": "Namur",
		"countryId": 22,
		"countryCode": "BE",
		"countryName": "Belgium",
		"stateCode": "WNA",
		"latitude": 50.46738830,
		"longitude": 4.87198540
	},{
		"id": 1380,
		"name": "Wallonia",
		"countryId": 22,
		"countryCode": "BE",
		"countryName": "Belgium",
		"stateCode": "WAL",
		"latitude": 50.41756370,
		"longitude": 4.45100660
	},{
		"id": 1382,
		"name": "Walloon Brabant",
		"countryId": 22,
		"countryCode": "BE",
		"countryName": "Belgium",
		"stateCode": "WBR",
		"latitude": 50.63324100,
		"longitude": 4.52431500
	},{
		"id": 1383,
		"name": "West Flanders",
		"countryId": 22,
		"countryCode": "BE",
		"countryName": "Belgium",
		"stateCode": "VWV",
		"latitude": 40.01793340,
		"longitude": -105.28067330
	},{
		"id": 264,
		"name": "Belize District",
		"countryId": 23,
		"countryCode": "BZ",
		"countryName": "Belize",
		"stateCode": "BZ",
		"latitude": 17.56776790,
		"longitude": -88.40160410
	},{
		"id": 269,
		"name": "Cayo District",
		"countryId": 23,
		"countryCode": "BZ",
		"countryName": "Belize",
		"stateCode": "CY",
		"latitude": 17.09844450,
		"longitude": -88.94138650
	},{
		"id": 266,
		"name": "Corozal District",
		"countryId": 23,
		"countryCode": "BZ",
		"countryName": "Belize",
		"stateCode": "CZL",
		"latitude": 18.13492380,
		"longitude": -88.24611830
	},{
		"id": 268,
		"name": "Orange Walk District",
		"countryId": 23,
		"countryCode": "BZ",
		"countryName": "Belize",
		"stateCode": "OW",
		"latitude": 17.76035300,
		"longitude": -88.86469800
	},{
		"id": 265,
		"name": "Stann Creek District",
		"countryId": 23,
		"countryCode": "BZ",
		"countryName": "Belize",
		"stateCode": "SC",
		"latitude": 16.81166310,
		"longitude": -88.40160410
	},{
		"id": 267,
		"name": "Toledo District",
		"countryId": 23,
		"countryCode": "BZ",
		"countryName": "Belize",
		"stateCode": "TOL",
		"latitude": 16.24919230,
		"longitude": -88.86469800
	},{
		"id": 3077,
		"name": "Alibori Department",
		"countryId": 24,
		"countryCode": "BJ",
		"countryName": "Benin",
		"stateCode": "AL",
		"latitude": 10.96810930,
		"longitude": 2.77798130
	},{
		"id": 3076,
		"name": "Atakora Department",
		"countryId": 24,
		"countryCode": "BJ",
		"countryName": "Benin",
		"stateCode": "AK",
		"latitude": 10.79549310,
		"longitude": 1.67606910
	},{
		"id": 3079,
		"name": "Atlantique Department",
		"countryId": 24,
		"countryCode": "BJ",
		"countryName": "Benin",
		"stateCode": "AQ",
		"latitude": 6.65883910,
		"longitude": 2.22366670
	},{
		"id": 3078,
		"name": "Borgou Department",
		"countryId": 24,
		"countryCode": "BJ",
		"countryName": "Benin",
		"stateCode": "BO",
		"latitude": 9.53408640,
		"longitude": 2.77798130
	},{
		"id": 3070,
		"name": "Collines Department",
		"countryId": 24,
		"countryCode": "BJ",
		"countryName": "Benin",
		"stateCode": "CO",
		"latitude": 8.30222970,
		"longitude": 2.30244600
	},{
		"id": 3072,
		"name": "Donga Department",
		"countryId": 24,
		"countryCode": "BJ",
		"countryName": "Benin",
		"stateCode": "DO",
		"latitude": 9.71918670,
		"longitude": 1.67606910
	},{
		"id": 3071,
		"name": "Kouffo Department",
		"countryId": 24,
		"countryCode": "BJ",
		"countryName": "Benin",
		"stateCode": "KO",
		"latitude": 7.00358940,
		"longitude": 1.75388170
	},{
		"id": 3081,
		"name": "Littoral Department",
		"countryId": 24,
		"countryCode": "BJ",
		"countryName": "Benin",
		"stateCode": "LI",
		"latitude": 6.38069730,
		"longitude": 2.44063870
	},{
		"id": 3075,
		"name": "Mono Department",
		"countryId": 24,
		"countryCode": "BJ",
		"countryName": "Benin",
		"stateCode": "MO",
		"latitude": 37.92186080,
		"longitude": -118.95286450
	},{
		"id": 3080,
		"name": "Ouémé Department",
		"countryId": 24,
		"countryCode": "BJ",
		"countryName": "Benin",
		"stateCode": "OU",
		"latitude": 6.61481520,
		"longitude": 2.49999180
	},{
		"id": 3074,
		"name": "Plateau Department",
		"countryId": 24,
		"countryCode": "BJ",
		"countryName": "Benin",
		"stateCode": "PL",
		"latitude": 7.34451410,
		"longitude": 2.53960300
	},{
		"id": 3073,
		"name": "Zou Department",
		"countryId": 24,
		"countryCode": "BJ",
		"countryName": "Benin",
		"stateCode": "ZO",
		"latitude": 7.34692680,
		"longitude": 2.06651970
	},{
		"id": 4860,
		"name": "Devonshire Parish",
		"countryId": 25,
		"countryCode": "BM",
		"countryName": "Bermuda",
		"stateCode": "DEV",
		"latitude": 32.30380620,
		"longitude": -64.76069540
	},{
		"id": 4861,
		"name": "Hamilton Parish",
		"countryId": 25,
		"countryCode": "BM",
		"countryName": "Bermuda",
		"stateCode": "HA",
		"latitude": 32.34494320,
		"longitude": -64.72365000
	},{
		"id": 4863,
		"name": "Paget Parish",
		"countryId": 25,
		"countryCode": "BM",
		"countryName": "Bermuda",
		"stateCode": "PAG",
		"latitude": 32.28107400,
		"longitude": -64.77847870
	},{
		"id": 4864,
		"name": "Pembroke Parish",
		"countryId": 25,
		"countryCode": "BM",
		"countryName": "Bermuda",
		"stateCode": "PEM",
		"latitude": 32.30076720,
		"longitude": -64.79626300
	},{
		"id": 4866,
		"name": "Saint George's Parish",
		"countryId": 25,
		"countryCode": "BM",
		"countryName": "Bermuda",
		"stateCode": "SGE",
		"latitude": 17.12577590,
		"longitude": -62.56198110
	},{
		"id": 4867,
		"name": "Sandys Parish",
		"countryId": 25,
		"countryCode": "BM",
		"countryName": "Bermuda",
		"stateCode": "SAN",
		"latitude": 32.29995280,
		"longitude": -64.86741030
	},{
		"id": 4868,
		"name": "Smith's Parish,",
		"countryId": 25,
		"countryCode": "BM",
		"countryName": "Bermuda",
		"stateCode": "SMI",
		"latitude": 32.31339660,
		"longitude": -64.73105880
	},{
		"id": 4869,
		"name": "Southampton Parish",
		"countryId": 25,
		"countryCode": "BM",
		"countryName": "Bermuda",
		"stateCode": "SOU",
		"latitude": 32.25400950,
		"longitude": -64.82590580
	},{
		"id": 4870,
		"name": "Warwick Parish",
		"countryId": 25,
		"countryCode": "BM",
		"countryName": "Bermuda",
		"stateCode": "WAR",
		"latitude": 32.26615340,
		"longitude": -64.80811980
	},{
		"id": 240,
		"name": "Bumthang District",
		"countryId": 26,
		"countryCode": "BT",
		"countryName": "Bhutan",
		"stateCode": 33,
		"latitude": 27.64183900,
		"longitude": 90.67730460
	},{
		"id": 239,
		"name": "Chukha District",
		"countryId": 26,
		"countryCode": "BT",
		"countryName": "Bhutan",
		"stateCode": 12,
		"latitude": 27.07843040,
		"longitude": 89.47421770
	},{
		"id": 238,
		"name": "Dagana District",
		"countryId": 26,
		"countryCode": "BT",
		"countryName": "Bhutan",
		"stateCode": 22,
		"latitude": 27.03228610,
		"longitude": 89.88793040
	},{
		"id": 229,
		"name": "Gasa District",
		"countryId": 26,
		"countryCode": "BT",
		"countryName": "Bhutan",
		"stateCode": "GA",
		"latitude": 28.01858860,
		"longitude": 89.92532330
	},{
		"id": 232,
		"name": "Haa District",
		"countryId": 26,
		"countryCode": "BT",
		"countryName": "Bhutan",
		"stateCode": 13,
		"latitude": 27.26516690,
		"longitude": 89.17059980
	},{
		"id": 234,
		"name": "Lhuntse District",
		"countryId": 26,
		"countryCode": "BT",
		"countryName": "Bhutan",
		"stateCode": 44,
		"latitude": 27.82649890,
		"longitude": 91.13530200
	},{
		"id": 242,
		"name": "Mongar District",
		"countryId": 26,
		"countryCode": "BT",
		"countryName": "Bhutan",
		"stateCode": 42,
		"latitude": 27.26170590,
		"longitude": 91.28910360
	},{
		"id": 237,
		"name": "Paro District",
		"countryId": 26,
		"countryCode": "BT",
		"countryName": "Bhutan",
		"stateCode": 11,
		"latitude": 27.42859490,
		"longitude": 89.41665160
	},{
		"id": 244,
		"name": "Pemagatshel District",
		"countryId": 26,
		"countryCode": "BT",
		"countryName": "Bhutan",
		"stateCode": 43,
		"latitude": 27.00238200,
		"longitude": 91.34692470
	},{
		"id": 235,
		"name": "Punakha District",
		"countryId": 26,
		"countryCode": "BT",
		"countryName": "Bhutan",
		"stateCode": 23,
		"latitude": 27.69037160,
		"longitude": 89.88793040
	},{
		"id": 243,
		"name": "Samdrup Jongkhar District",
		"countryId": 26,
		"countryCode": "BT",
		"countryName": "Bhutan",
		"stateCode": 45,
		"latitude": 26.80356820,
		"longitude": 91.50392070
	},{
		"id": 246,
		"name": "Samtse District",
		"countryId": 26,
		"countryCode": "BT",
		"countryName": "Bhutan",
		"stateCode": 14,
		"latitude": 27.02918320,
		"longitude": 89.05615320
	},{
		"id": 247,
		"name": "Sarpang District",
		"countryId": 26,
		"countryCode": "BT",
		"countryName": "Bhutan",
		"stateCode": 31,
		"latitude": 26.93730410,
		"longitude": 90.48799160
	},{
		"id": 241,
		"name": "Thimphu District",
		"countryId": 26,
		"countryCode": "BT",
		"countryName": "Bhutan",
		"stateCode": 15,
		"latitude": 27.47122160,
		"longitude": 89.63390410
	},{
		"id": 236,
		"name": "Trashigang District",
		"countryId": 26,
		"countryCode": "BT",
		"countryName": "Bhutan",
		"stateCode": 41,
		"latitude": 27.25667950,
		"longitude": 91.75388170
	},{
		"id": 245,
		"name": "Trongsa District",
		"countryId": 26,
		"countryCode": "BT",
		"countryName": "Bhutan",
		"stateCode": 32,
		"latitude": 27.50022690,
		"longitude": 90.50806340
	},{
		"id": 230,
		"name": "Tsirang District",
		"countryId": 26,
		"countryCode": "BT",
		"countryName": "Bhutan",
		"stateCode": 21,
		"latitude": 27.03220700,
		"longitude": 90.18696440
	},{
		"id": 231,
		"name": "Wangdue Phodrang District",
		"countryId": 26,
		"countryCode": "BT",
		"countryName": "Bhutan",
		"stateCode": 24,
		"latitude": 27.45260460,
		"longitude": 90.06749280
	},{
		"id": 233,
		"name": "Zhemgang District",
		"countryId": 26,
		"countryCode": "BT",
		"countryName": "Bhutan",
		"stateCode": 34,
		"latitude": 27.07697500,
		"longitude": 90.82940020
	},{
		"id": 3375,
		"name": "Beni Department",
		"countryId": 27,
		"countryCode": "BO",
		"countryName": "Bolivia",
		"stateCode": "B",
		"latitude": -14.37827470,
		"longitude": -65.09577920
	},{
		"id": 3382,
		"name": "Chuquisaca Department",
		"countryId": 27,
		"countryCode": "BO",
		"countryName": "Bolivia",
		"stateCode": "H",
		"latitude": -20.02491440,
		"longitude": -64.14782360
	},{
		"id": 3381,
		"name": "Cochabamba Department",
		"countryId": 27,
		"countryCode": "BO",
		"countryName": "Bolivia",
		"stateCode": "C",
		"latitude": -17.56816750,
		"longitude": -65.47573600
	},{
		"id": 3380,
		"name": "La Paz Department",
		"countryId": 27,
		"countryCode": "BO",
		"countryName": "Bolivia",
		"stateCode": "L"
	},{
		"id": 3376,
		"name": "Oruro Department",
		"countryId": 27,
		"countryCode": "BO",
		"countryName": "Bolivia",
		"stateCode": "O",
		"latitude": -18.57115790,
		"longitude": -67.76159830
	},{
		"id": 3379,
		"name": "Pando Department",
		"countryId": 27,
		"countryCode": "BO",
		"countryName": "Bolivia",
		"stateCode": "N",
		"latitude": -10.79889010,
		"longitude": -66.99880110
	},{
		"id": 3383,
		"name": "Potosí Department",
		"countryId": 27,
		"countryCode": "BO",
		"countryName": "Bolivia",
		"stateCode": "P",
		"latitude": -20.62471300,
		"longitude": -66.99880110
	},{
		"id": 3377,
		"name": "Santa Cruz Department",
		"countryId": 27,
		"countryCode": "BO",
		"countryName": "Bolivia",
		"stateCode": "S",
		"latitude": -16.74760370,
		"longitude": -62.07509980
	},{
		"id": 3378,
		"name": "Tarija Department",
		"countryId": 27,
		"countryCode": "BO",
		"countryName": "Bolivia",
		"stateCode": "T",
		"latitude": -21.58315950,
		"longitude": -63.95861110
	},{
		"id": 5086,
		"name": "Bonaire",
		"countryId": 155,
		"countryCode": "BQ",
		"countryName": "Bonaire, Sint Eustatius and Saba",
		"stateCode": "BQ1",
		"type": "special municipality",
		"latitude": 12.20189020,
		"longitude": -68.26238220
	},{
		"id": 5087,
		"name": "Saba",
		"countryId": 155,
		"countryCode": "BQ",
		"countryName": "Bonaire, Sint Eustatius and Saba",
		"stateCode": "BQ2",
		"type": "special municipality",
		"latitude": 17.63546420,
		"longitude": -63.23267630
	},{
		"id": 5088,
		"name": "Sint Eustatius",
		"countryId": 155,
		"countryCode": "BQ",
		"countryName": "Bonaire, Sint Eustatius and Saba",
		"stateCode": "BQ3",
		"type": "special municipality",
		"latitude": 17.48903060,
		"longitude": -62.97355500
	},{
		"id": 472,
		"name": "Bosnian Podrinje Canton",
		"countryId": 28,
		"countryCode": "BA",
		"countryName": "Bosnia and Herzegovina",
		"stateCode": "05",
		"latitude": 43.68749000,
		"longitude": 18.82443940
	},{
		"id": 460,
		"name": "Brčko District",
		"countryId": 28,
		"countryCode": "BA",
		"countryName": "Bosnia and Herzegovina",
		"stateCode": "BRC",
		"latitude": 44.84059440,
		"longitude": 18.74215300
	},{
		"id": 471,
		"name": "Canton 10",
		"countryId": 28,
		"countryCode": "BA",
		"countryName": "Bosnia and Herzegovina",
		"stateCode": 10,
		"latitude": 43.95341550,
		"longitude": 16.94251870
	},{
		"id": 462,
		"name": "Central Bosnia Canton",
		"countryId": 28,
		"countryCode": "BA",
		"countryName": "Bosnia and Herzegovina",
		"stateCode": "06",
		"latitude": 44.13818560,
		"longitude": 17.68667140
	},{
		"id": 467,
		"name": "Federation of Bosnia and Herzegovina",
		"countryId": 28,
		"countryCode": "BA",
		"countryName": "Bosnia and Herzegovina",
		"stateCode": "BIH",
		"latitude": 43.88748970,
		"longitude": 17.84279300
	},{
		"id": 463,
		"name": "Herzegovina-Neretva Canton",
		"countryId": 28,
		"countryCode": "BA",
		"countryName": "Bosnia and Herzegovina",
		"stateCode": "07",
		"latitude": 43.52651590,
		"longitude": 17.76362100
	},{
		"id": 464,
		"name": "Posavina Canton",
		"countryId": 28,
		"countryCode": "BA",
		"countryName": "Bosnia and Herzegovina",
		"stateCode": "02",
		"latitude": 45.07520940,
		"longitude": 18.37763040
	},{
		"id": 470,
		"name": "Republika Srpska",
		"countryId": 28,
		"countryCode": "BA",
		"countryName": "Bosnia and Herzegovina",
		"stateCode": "SRP",
		"latitude": 44.72801860,
		"longitude": 17.31481360
	},{
		"id": 466,
		"name": "Sarajevo Canton",
		"countryId": 28,
		"countryCode": "BA",
		"countryName": "Bosnia and Herzegovina",
		"stateCode": "09",
		"latitude": 43.85125640,
		"longitude": 18.29534420
	},{
		"id": 461,
		"name": "Tuzla Canton",
		"countryId": 28,
		"countryCode": "BA",
		"countryName": "Bosnia and Herzegovina",
		"stateCode": "03",
		"latitude": 44.53434630,
		"longitude": 18.69727970
	},{
		"id": 465,
		"name": "Una-Sana Canton",
		"countryId": 28,
		"countryCode": "BA",
		"countryName": "Bosnia and Herzegovina",
		"stateCode": "01",
		"latitude": 44.65031160,
		"longitude": 16.31716290
	},{
		"id": 469,
		"name": "West Herzegovina Canton",
		"countryId": 28,
		"countryCode": "BA",
		"countryName": "Bosnia and Herzegovina",
		"stateCode": "08",
		"latitude": 43.43692440,
		"longitude": 17.38488310
	},{
		"id": 468,
		"name": "Zenica-Doboj Canton",
		"countryId": 28,
		"countryCode": "BA",
		"countryName": "Bosnia and Herzegovina",
		"stateCode": "04",
		"latitude": 44.21271090,
		"longitude": 18.16046250
	},{
		"id": 3067,
		"name": "Central District",
		"countryId": 29,
		"countryCode": "BW",
		"countryName": "Botswana",
		"stateCode": "CE"
	},{
		"id": 3061,
		"name": "Ghanzi District",
		"countryId": 29,
		"countryCode": "BW",
		"countryName": "Botswana",
		"stateCode": "GH",
		"latitude": -21.86523140,
		"longitude": 21.85685860
	},{
		"id": 3066,
		"name": "Kgalagadi District",
		"countryId": 29,
		"countryCode": "BW",
		"countryName": "Botswana",
		"stateCode": "KG",
		"latitude": -24.75502850,
		"longitude": 21.85685860
	},{
		"id": 3062,
		"name": "Kgatleng District",
		"countryId": 29,
		"countryCode": "BW",
		"countryName": "Botswana",
		"stateCode": "KL",
		"latitude": -24.19704450,
		"longitude": 26.23046160
	},{
		"id": 3069,
		"name": "Kweneng District",
		"countryId": 29,
		"countryCode": "BW",
		"countryName": "Botswana",
		"stateCode": "KW",
		"latitude": -23.83672490,
		"longitude": 25.28375850
	},{
		"id": 3060,
		"name": "Ngamiland",
		"countryId": 29,
		"countryCode": "BW",
		"countryName": "Botswana",
		"stateCode": "NG",
		"latitude": -19.19053210,
		"longitude": 23.00119890
	},{
		"id": 3068,
		"name": "North-East District",
		"countryId": 29,
		"countryCode": "BW",
		"countryName": "Botswana",
		"stateCode": "NE",
		"latitude": 37.58844610,
		"longitude": -94.68637820
	},{
		"id": 3065,
		"name": "North-West District",
		"countryId": 29,
		"countryCode": "BW",
		"countryName": "Botswana",
		"stateCode": "NW",
		"latitude": 39.34463070,
		"longitude": -76.68542830
	},{
		"id": 3064,
		"name": "South-East District",
		"countryId": 29,
		"countryCode": "BW",
		"countryName": "Botswana",
		"stateCode": "SE",
		"latitude": 31.21637980,
		"longitude": -82.35270440
	},{
		"id": 3063,
		"name": "Southern District",
		"countryId": 29,
		"countryCode": "BW",
		"countryName": "Botswana",
		"stateCode": "SO"
	},{
		"id": 2012,
		"name": "Acre",
		"countryId": 31,
		"countryCode": "BR",
		"countryName": "Brazil",
		"stateCode": "AC",
		"latitude": -9.02379600,
		"longitude": -70.81199500
	},{
		"id": 2007,
		"name": "Alagoas",
		"countryId": 31,
		"countryCode": "BR",
		"countryName": "Brazil",
		"stateCode": "AL",
		"latitude": -9.57130580,
		"longitude": -36.78195050
	},{
		"id": 1999,
		"name": "Amapá",
		"countryId": 31,
		"countryCode": "BR",
		"countryName": "Brazil",
		"stateCode": "AP",
		"latitude": 0.90199250,
		"longitude": -52.00295650
	},{
		"id": 2004,
		"name": "Amazonas",
		"countryId": 31,
		"countryCode": "BR",
		"countryName": "Brazil",
		"stateCode": "AM",
		"latitude": -3.07000000,
		"longitude": -61.66000000
	},{
		"id": 2002,
		"name": "Bahia",
		"countryId": 31,
		"countryCode": "BR",
		"countryName": "Brazil",
		"stateCode": "BA",
		"latitude": -11.40987400,
		"longitude": -41.28085700
	},{
		"id": 2016,
		"name": "Ceará",
		"countryId": 31,
		"countryCode": "BR",
		"countryName": "Brazil",
		"stateCode": "CE",
		"latitude": -5.49839770,
		"longitude": -39.32062410
	},{
		"id": 2017,
		"name": "Distrito Federal",
		"countryId": 31,
		"countryCode": "BR",
		"countryName": "Brazil",
		"stateCode": "DF",
		"latitude": -15.79976540,
		"longitude": -47.86447150
	},{
		"id": 2018,
		"name": "Espírito Santo",
		"countryId": 31,
		"countryCode": "BR",
		"countryName": "Brazil",
		"stateCode": "ES",
		"latitude": -19.18342290,
		"longitude": -40.30886260
	},{
		"id": 2000,
		"name": "Goiás",
		"countryId": 31,
		"countryCode": "BR",
		"countryName": "Brazil",
		"stateCode": "GO",
		"latitude": -15.82703690,
		"longitude": -49.83622370
	},{
		"id": 2015,
		"name": "Maranhão",
		"countryId": 31,
		"countryCode": "BR",
		"countryName": "Brazil",
		"stateCode": "MA",
		"latitude": -4.96094980,
		"longitude": -45.27441590
	},{
		"id": 2011,
		"name": "Mato Grosso",
		"countryId": 31,
		"countryCode": "BR",
		"countryName": "Brazil",
		"stateCode": "MT",
		"latitude": -12.68187120,
		"longitude": -56.92109900
	},{
		"id": 2010,
		"name": "Mato Grosso do Sul",
		"countryId": 31,
		"countryCode": "BR",
		"countryName": "Brazil",
		"stateCode": "MS",
		"latitude": -20.77222950,
		"longitude": -54.78515310
	},{
		"id": 1998,
		"name": "Minas Gerais",
		"countryId": 31,
		"countryCode": "BR",
		"countryName": "Brazil",
		"stateCode": "MG",
		"latitude": -18.51217800,
		"longitude": -44.55503080
	},{
		"id": 2009,
		"name": "Pará",
		"countryId": 31,
		"countryCode": "BR",
		"countryName": "Brazil",
		"stateCode": "PA",
		"latitude": -1.99812710,
		"longitude": -54.93061520
	},{
		"id": 2005,
		"name": "Paraíba",
		"countryId": 31,
		"countryCode": "BR",
		"countryName": "Brazil",
		"stateCode": "PB",
		"latitude": -7.23996090,
		"longitude": -36.78195050
	},{
		"id": 2022,
		"name": "Paraná",
		"countryId": 31,
		"countryCode": "BR",
		"countryName": "Brazil",
		"stateCode": "PR",
		"latitude": -25.25208880,
		"longitude": -52.02154150
	},{
		"id": 2006,
		"name": "Pernambuco",
		"countryId": 31,
		"countryCode": "BR",
		"countryName": "Brazil",
		"stateCode": "PE",
		"latitude": -8.81371730,
		"longitude": -36.95410700
	},{
		"id": 2008,
		"name": "Piauí",
		"countryId": 31,
		"countryCode": "BR",
		"countryName": "Brazil",
		"stateCode": "PI",
		"latitude": -7.71834010,
		"longitude": -42.72892360
	},{
		"id": 1997,
		"name": "Rio de Janeiro",
		"countryId": 31,
		"countryCode": "BR",
		"countryName": "Brazil",
		"stateCode": "RJ",
		"latitude": -22.90684670,
		"longitude": -43.17289650
	},{
		"id": 2019,
		"name": "Rio Grande do Norte",
		"countryId": 31,
		"countryCode": "BR",
		"countryName": "Brazil",
		"stateCode": "RN",
		"latitude": -5.40258030,
		"longitude": -36.95410700
	},{
		"id": 2001,
		"name": "Rio Grande do Sul",
		"countryId": 31,
		"countryCode": "BR",
		"countryName": "Brazil",
		"stateCode": "RS",
		"latitude": -30.03463160,
		"longitude": -51.21769860
	},{
		"id": 2013,
		"name": "Rondônia",
		"countryId": 31,
		"countryCode": "BR",
		"countryName": "Brazil",
		"stateCode": "RO",
		"latitude": -11.50573410,
		"longitude": -63.58061100
	},{
		"id": 4858,
		"name": "Roraima",
		"countryId": 31,
		"countryCode": "BR",
		"countryName": "Brazil",
		"stateCode": "RR",
		"latitude": 2.73759710,
		"longitude": -62.07509980
	},{
		"id": 2014,
		"name": "Santa Catarina",
		"countryId": 31,
		"countryCode": "BR",
		"countryName": "Brazil",
		"stateCode": "SC",
		"latitude": -27.33000000,
		"longitude": -49.44000000
	},{
		"id": 2021,
		"name": "São Paulo",
		"countryId": 31,
		"countryCode": "BR",
		"countryName": "Brazil",
		"stateCode": "SP",
		"latitude": -23.55051990,
		"longitude": -46.63330940
	},{
		"id": 2003,
		"name": "Sergipe",
		"countryId": 31,
		"countryCode": "BR",
		"countryName": "Brazil",
		"stateCode": "SE",
		"latitude": -10.57409340,
		"longitude": -37.38565810
	},{
		"id": 2020,
		"name": "Tocantins",
		"countryId": 31,
		"countryCode": "BR",
		"countryName": "Brazil",
		"stateCode": "TO",
		"latitude": -10.17528000,
		"longitude": -48.29824740
	},{
		"id": 1217,
		"name": "Belait District",
		"countryId": 33,
		"countryCode": "BN",
		"countryName": "Brunei",
		"stateCode": "BE",
		"latitude": 4.37507490,
		"longitude": 114.61928990
	},{
		"id": 1216,
		"name": "Brunei-Muara District",
		"countryId": 33,
		"countryCode": "BN",
		"countryName": "Brunei",
		"stateCode": "BM",
		"latitude": 4.93112060,
		"longitude": 114.95168690
	},{
		"id": 1218,
		"name": "Temburong District",
		"countryId": 33,
		"countryCode": "BN",
		"countryName": "Brunei",
		"stateCode": "TE",
		"latitude": 4.62041280,
		"longitude": 115.14148400
	},{
		"id": 1219,
		"name": "Tutong District",
		"countryId": 33,
		"countryCode": "BN",
		"countryName": "Brunei",
		"stateCode": "TU",
		"latitude": 4.71403730,
		"longitude": 114.66679390
	},{
		"id": 4699,
		"name": "Blagoevgrad Province",
		"countryId": 34,
		"countryCode": "BG",
		"countryName": "Bulgaria",
		"stateCode": "01",
		"latitude": 42.02086140,
		"longitude": 23.09433560
	},{
		"id": 4715,
		"name": "Burgas Province",
		"countryId": 34,
		"countryCode": "BG",
		"countryName": "Bulgaria",
		"stateCode": "02",
		"latitude": 42.50480000,
		"longitude": 27.46260790
	},{
		"id": 4718,
		"name": "Dobrich Province",
		"countryId": 34,
		"countryCode": "BG",
		"countryName": "Bulgaria",
		"stateCode": "08",
		"latitude": 43.57278600,
		"longitude": 27.82728020
	},{
		"id": 4693,
		"name": "Gabrovo Province",
		"countryId": 34,
		"countryCode": "BG",
		"countryName": "Bulgaria",
		"stateCode": "07",
		"latitude": 42.86847000,
		"longitude": 25.31688900
	},